[{"lat":22.5242107, "lng":113.9235698, "address":"东华假日酒店", "name":"000001.jpg"},
{"lat":22.5937822, "lng":113.8944849, "address":"东华假日酒店", "name":"000002.jpg"},
{"lat":22.5476264, "lng":114.0883482, "address":"Walmart", "name":"000003.jpg"},
{"lat":22.6142154, "lng":113.8550424, "address":"Walmart", "name":"000004.jpg"},
{"lat":22.5402847, "lng":114.0813234, "address":"TCM", "name":"000005.jpg"},
{"lat":22.5426736, "lng":114.0826363, "address":"Motel", "name":"000006.jpg"},
{"lat":22.5465390, "lng":114.0779418, "address":"Super", "name":"000007.jpg"},
{"lat":22.5619366, "lng":114.1315613, "address":"Super", "name":"000008.jpg"},
{"lat":22.5478247, "lng":114.1137898, "address":"Sun", "name":"000009.jpg"},
{"lat":22.5524875, "lng":114.1253361, "address":"小肥羊", "name":"000010.jpg"},
{"lat":22.5511798, "lng":114.1168413, "address":"麦当劳", "name":"000011.jpg"},
{"lat":22.5509367, "lng":114.1167528, "address":"肯德基", "name":"000012.jpg"},
{"lat":22.5507275, "lng":114.1166073, "address":"必胜客", "name":"000013.jpg"},
{"lat":22.5556866, "lng":114.1235113, "address":"如家酒店", "name":"000014.jpg"},
{"lat":22.5550738, "lng":114.1240955, "address":"名都酒店", "name":"000015.jpg"},
{"lat":22.5534872, "lng":114.1265390, "address":"招商银行", "name":"000016.jpg"},
{"lat":22.5521842, "lng":114.1254328, "address":"中国银行", "name":"000017.jpg"},
{"lat":22.5516211, "lng":114.1265937, "address":"中国工商银行", "name":"000018.jpg"},
{"lat":22.5525294, "lng":114.1244313, "address":"7-Eleven", "name":"000019.jpg"},
{"lat":22.5485110, "lng":114.1129509, "address":"McCafé", "name":"000020.jpg"},
{"lat":22.5646620, "lng":114.1393181, "address":"McCafé", "name":"000021.jpg"},
{"lat":22.5503314, "lng":114.1163537, "address":"罗湖人民医院", "name":"000022.jpg"},
{"lat":22.5451406, "lng":114.1055980, "address":"地王观光·深港之窗", "name":"000023.jpg"},
{"lat":22.5449977, "lng":114.1050112, "address":"麦当劳", "name":"000024.jpg"},
{"lat":22.5433231, "lng":114.0897582, "address":"科学馆", "name":"000025.jpg"},
{"lat":22.5515702, "lng":114.1178676, "address":"深圳维景酒店", "name":"000026.jpg"},
{"lat":22.5498229, "lng":114.0403286, "address":"鲁班大厦", "name":"000027.jpg"},
{"lat":22.5486825, "lng":114.0349285, "address":"鲁班大厦", "name":"000028.jpg"},
{"lat":22.5411341, "lng":113.9742846, "address":"欢乐谷", "name":"000029.jpg"},
{"lat":22.5634847, "lng":113.9756871, "address":"欢乐谷", "name":"000030.jpg"},
{"lat":22.5379436, "lng":113.9801449, "address":"华夏艺术中心", "name":"000031.jpg"},
{"lat":22.5382431, "lng":113.9617964, "address":"华夏艺术中心", "name":"000032.jpg"},
{"lat":22.5205351, "lng":113.9191507, "address":"崇尚百货", "name":"000033.jpg"},
{"lat":22.5652929, "lng":114.0439434, "address":"崇尚百货", "name":"000034.jpg"},
{"lat":22.5383839, "lng":114.0215250, "address":"CheGongMiao", "name":"000035.jpg"},
{"lat":22.5386136, "lng":114.0218075, "address":"CheGongMiao", "name":"000036.jpg"},
{"lat":22.4893424, "lng":113.9106914, "address":"汉庭酒店", "name":"000037.jpg"},
{"lat":22.4878346, "lng":113.9111205, "address":"海上世界", "name":"000038.jpg"},
{"lat":22.4880640, "lng":113.9112165, "address":"海上世界", "name":"000039.jpg"},
{"lat":22.5301190, "lng":113.9205991, "address":"世家肠粉", "name":"000040.jpg"},
{"lat":22.5429434, "lng":113.9345849, "address":"深大北门", "name":"000041.jpg"},
{"lat":22.5428423, "lng":113.9324151, "address":"深大北门", "name":"000042.jpg"},
{"lat":22.5370083, "lng":113.9268949, "address":"深圳大学", "name":"000043.jpg"},
{"lat":22.5355567, "lng":113.9188705, "address":"协和深圳医院", "name":"000044.jpg"},
{"lat":22.4962664, "lng":114.0285156, "address":"协和深圳医院", "name":"000045.jpg"},
{"lat":22.5315520, "lng":113.9192101, "address":"捷安特南山专卖店", "name":"000046.jpg"},
{"lat":22.5194316, "lng":113.9208571, "address":"怡海广场", "name":"000047.jpg"},
{"lat":22.5188865, "lng":113.9219193, "address":"海王大厦", "name":"000048.jpg"},
{"lat":22.6253830, "lng":114.3028500, "address":"海王大厦", "name":"000049.jpg"},
{"lat":22.5316699, "lng":113.9096668, "address":"人人乐", "name":"000050.jpg"},
{"lat":22.5326136, "lng":113.9155953, "address":"家乐福", "name":"000051.jpg"},
{"lat":22.6007350, "lng":113.9365853, "address":"家乐福", "name":"000052.jpg"},
{"lat":22.5517773, "lng":114.0910495, "address":"通新岭", "name":"000053.jpg"},
{"lat":22.5518513, "lng":114.0825159, "address":"华新", "name":"000054.jpg"},
{"lat":22.5296953, "lng":113.9191798, "address":"南航公司", "name":"000055.jpg"},
{"lat":22.5294441, "lng":113.9194073, "address":"南航公司", "name":"000056.jpg"},
{"lat":22.5329373, "lng":113.9199556, "address":"协和深圳医院东", "name":"000057.jpg"},
{"lat":22.5299613, "lng":113.9211218, "address":"学府路人人乐超市", "name":"000058.jpg"},
{"lat":22.5315549, "lng":113.9194958, "address":"协和深圳医院东", "name":"000059.jpg"},
{"lat":22.5982751, "lng":113.9589195, "address":"金百合大酒店", "name":"000060.jpg"},
{"lat":22.5850889, "lng":113.9618877, "address":"红花岭", "name":"000061.jpg"},
{"lat":22.5949220, "lng":113.9874734, "address":"中科院深圳先进院", "name":"000062.jpg"},
{"lat":22.5949921, "lng":113.9591023, "address":"丽山路北", "name":"000063.jpg"},
{"lat":22.5950801, "lng":113.9874581, "address":"中科院深圳先进院", "name":"000064.jpg"},
{"lat":22.5942443, "lng":113.9593696, "address":"丽山路北", "name":"000065.jpg"},
{"lat":22.5552289, "lng":114.2369363, "address":"海滨栈道公共厕所", "name":"000066.jpg"},
{"lat":22.5490114, "lng":114.2262155, "address":"海滨栈道公共厕所", "name":"000067.jpg"},
{"lat":22.5486249, "lng":114.2263603, "address":"关前公共厕所", "name":"000068.jpg"},
{"lat":22.5439509, "lng":114.0821952, "address":"赛格电子市场", "name":"000069.jpg"},
{"lat":22.5439832, "lng":114.0812188, "address":"丰尔电子", "name":"000070.jpg"},
{"lat":22.5455982, "lng":114.0816185, "address":"丰尔电子", "name":"000071.jpg"},
{"lat":22.5474404, "lng":114.0844082, "address":"Electroincs", "name":"000072.jpg"},
{"lat":22.5482232, "lng":114.0837967, "address":"MINGTON", "name":"000073.jpg"},
{"lat":22.5489862, "lng":114.0845048, "address":"MINGTON", "name":"000074.jpg"},
{"lat":22.5536562, "lng":114.0656899, "address":"Haolinju", "name":"000075.jpg"},
{"lat":22.5513544, "lng":114.0660245, "address":"Haolinju", "name":"000076.jpg"},
{"lat":22.5515359, "lng":114.0653519, "address":"中国建设银行", "name":"000077.jpg"},
{"lat":22.5527563, "lng":114.0631541, "address":"中国建设银行", "name":"000078.jpg"},
{"lat":22.5696621, "lng":114.0330206, "address":"Meilinyicun", "name":"000079.jpg"},
{"lat":22.5692278, "lng":114.0264022, "address":"Meishan", "name":"000080.jpg"},
{"lat":22.5675222, "lng":114.0338360, "address":"中国工商银行", "name":"000081.jpg"},
{"lat":22.5689686, "lng":114.0361319, "address":"必胜客", "name":"000082.jpg"},
{"lat":22.5692198, "lng":114.0351658, "address":"味千拉面", "name":"000083.jpg"},
{"lat":22.5673835, "lng":114.0298878, "address":"Wanze", "name":"000084.jpg"},
{"lat":22.5681473, "lng":114.0346750, "address":"交通银行", "name":"000085.jpg"},
{"lat":22.5685129, "lng":114.0354882, "address":"肯德基", "name":"000086.jpg"},
{"lat":22.5724757, "lng":114.0317127, "address":"Meilin", "name":"000087.jpg"},
{"lat":22.5665176, "lng":114.0358926, "address":"下梅林市场", "name":"000088.jpg"},
{"lat":22.5231977, "lng":114.0480368, "address":"元气寿司", "name":"000089.jpg"},
{"lat":22.5559480, "lng":114.0543250, "address":"邓小平塑像", "name":"000090.jpg"},
{"lat":22.5563274, "lng":114.0380972, "address":"邓小平塑像", "name":"000091.jpg"},
{"lat":22.5495832, "lng":114.2265673, "address":"台铃电动车", "name":"000092.jpg"},
{"lat":22.7275293, "lng":114.2467275, "address":"Supermarket", "name":"000093.jpg"},
{"lat":22.7281924, "lng":114.2433573, "address":"KTV", "name":"000094.jpg"},
{"lat":22.7129242, "lng":114.2316534, "address":"McDonald's", "name":"000095.jpg"},
{"lat":22.7221715, "lng":114.2239981, "address":"McDonald's", "name":"000096.jpg"},
{"lat":22.7272080, "lng":114.2432831, "address":"星巴克", "name":"000097.jpg"},
{"lat":22.7131654, "lng":114.2316908, "address":"盒马鲜生", "name":"000098.jpg"},
{"lat":22.5547823, "lng":114.2222682, "address":"基督教沙头角教会", "name":"000099.jpg"},
{"lat":22.5540413, "lng":114.0594204, "address":"基督教沙头角教会", "name":"000100.jpg"},
{"lat":22.5446676, "lng":114.0767932, "address":"xi'an", "name":"000101.jpg"},
{"lat":22.5348684, "lng":113.9616417, "address":"金沙湾", "name":"000102.jpg"},
{"lat":22.5348150, "lng":113.9615650, "address":"金沙湾休闲会所", "name":"000103.jpg"},
{"lat":22.6485562, "lng":114.0606554, "address":"希尔顿百瑞达酒店", "name":"000104.jpg"},
{"lat":22.5504596, "lng":113.9717101, "address":"Parknshop", "name":"000105.jpg"},
{"lat":22.5078694, "lng":113.9384829, "address":"深圳湾口岸", "name":"000106.jpg"},
{"lat":22.6527709, "lng":114.0564383, "address":"华为生产中心", "name":"000107.jpg"},
{"lat":22.6524117, "lng":114.0562340, "address":"华为生产中心", "name":"000108.jpg"},
{"lat":22.6579400, "lng":114.0561372, "address":"华为基地", "name":"000109.jpg"},
{"lat":22.6474051, "lng":114.0570588, "address":"新天下集团", "name":"000110.jpg"},
{"lat":22.6474823, "lng":114.0567854, "address":"新天下集团", "name":"000111.jpg"},
{"lat":22.6572033, "lng":114.0559014, "address":"华为基地", "name":"000112.jpg"},
{"lat":22.5494813, "lng":114.0818596, "address":"平安银行", "name":"000113.jpg"},
{"lat":22.5485301, "lng":114.0819079, "address":"汉堡王", "name":"000114.jpg"},
{"lat":22.5474104, "lng":114.0811521, "address":"星巴克", "name":"000115.jpg"},
{"lat":22.5516464, "lng":114.0645275, "address":"Sun", "name":"000116.jpg"},
{"lat":22.5905205, "lng":114.4761452, "address":"王母围", "name":"000117.jpg"},
{"lat":22.5580074, "lng":114.1045940, "address":"中南海顺酒店", "name":"000118.jpg"},
{"lat":22.5519212, "lng":114.2266289, "address":"中国银行(沙头角支行)", "name":"000119.jpg"},
{"lat":22.6955121, "lng":114.3029455, "address":"FMIC", "name":"000120.jpg"},
{"lat":22.5737660, "lng":114.1246150, "address":"沃尔玛", "name":"000121.jpg"},
{"lat":22.5585482, "lng":114.1232632, "address":"人民医院留医部", "name":"000122.jpg"},
{"lat":22.5740771, "lng":114.1219159, "address":"新地酒店", "name":"000123.jpg"},
{"lat":22.5695654, "lng":114.1239069, "address":"田贝邮局", "name":"000124.jpg"},
{"lat":22.5663555, "lng":114.1215895, "address":"田贝中队", "name":"000125.jpg"},
{"lat":22.5652553, "lng":114.1221468, "address":"深圳中学初中部", "name":"000126.jpg"},
{"lat":22.5692286, "lng":114.1210101, "address":"中国银行", "name":"000127.jpg"},
{"lat":22.5737214, "lng":114.1214234, "address":"工商银行", "name":"000128.jpg"},
{"lat":22.5737851, "lng":114.1236379, "address":"平安银行", "name":"000129.jpg"},
{"lat":22.5739986, "lng":114.1185696, "address":"特力大厦", "name":"000130.jpg"},
{"lat":22.5736543, "lng":114.1242734, "address":"翠竹大厦", "name":"000131.jpg"},
{"lat":22.5843604, "lng":114.1313531, "address":"华诚百货", "name":"000132.jpg"},
{"lat":22.5402461, "lng":114.1141846, "address":"沃尔玛", "name":"000133.jpg"},
{"lat":22.6388009, "lng":114.0634258, "address":"商务酒店", "name":"000134.jpg"},
{"lat":22.6478710, "lng":114.0621592, "address":"关东风北方菜", "name":"000135.jpg"},
{"lat":22.7197895, "lng":114.2497871, "address":"龙城广场", "name":"000136.jpg"},
{"lat":22.7298887, "lng":114.2132543, "address":"龙城广场", "name":"000137.jpg"},
{"lat":22.6962377, "lng":113.7647883, "address":"会展中心", "name":"000138.jpg"},
{"lat":22.5407837, "lng":114.1246496, "address":"文锦渡", "name":"000139.jpg"},
{"lat":22.5197536, "lng":113.9327853, "address":"后海天虹", "name":"000140.jpg"},
{"lat":22.5416851, "lng":113.9345828, "address":"深圳大学北门", "name":"000141.jpg"},
{"lat":22.5329411, "lng":113.9309787, "address":"杜鹃山", "name":"000142.jpg"},
{"lat":22.5345387, "lng":113.9279118, "address":"杜鹃山", "name":"000143.jpg"},
{"lat":22.5301078, "lng":113.9292047, "address":"Helen's", "name":"000144.jpg"},
{"lat":22.5360258, "lng":113.9279350, "address":"Helen's", "name":"000145.jpg"},
{"lat":22.5209263, "lng":113.9258097, "address":"东亚银行", "name":"000146.jpg"},
{"lat":22.5210147, "lng":113.9259231, "address":"中信银行", "name":"000147.jpg"},
{"lat":22.5197078, "lng":113.9347617, "address":"中信银行", "name":"000148.jpg"},
{"lat":22.5465299, "lng":113.9183564, "address":"南头古城东门", "name":"000149.jpg"},
{"lat":22.5316574, "lng":113.9202597, "address":"赛格电子市场", "name":"000150.jpg"},
{"lat":22.5403594, "lng":113.9691674, "address":"世界之窗", "name":"000151.jpg"},
{"lat":22.5420178, "lng":113.9632203, "address":"世界之窗", "name":"000152.jpg"},
{"lat":22.5365923, "lng":114.0096274, "address":"竹子林", "name":"000153.jpg"},
{"lat":22.5374617, "lng":114.0082568, "address":"竹子林B2", "name":"000154.jpg"},
{"lat":22.5404463, "lng":113.9291323, "address":"西北谷", "name":"000155.jpg"},
{"lat":22.7033470, "lng":114.2141818, "address":"威斯特酒店", "name":"000156.jpg"},
{"lat":22.7024188, "lng":114.2139469, "address":"威斯特酒店", "name":"000157.jpg"},
{"lat":22.6940081, "lng":114.2239515, "address":"Sam's", "name":"000158.jpg"},
{"lat":22.6933578, "lng":114.2234804, "address":"优衣库", "name":"000159.jpg"},
{"lat":22.7022167, "lng":114.2118501, "address":"优衣库", "name":"000160.jpg"},
{"lat":22.6993545, "lng":114.2151792, "address":"华润万家便利超市", "name":"000161.jpg"},
{"lat":22.7032580, "lng":114.2147801, "address":"华润万家便利超市", "name":"000162.jpg"},
{"lat":22.7267726, "lng":114.2437446, "address":"汉堡王", "name":"000163.jpg"},
{"lat":22.7050550, "lng":114.2139145, "address":"阳光天健城", "name":"000164.jpg"},
{"lat":22.7004088, "lng":114.2136018, "address":"大运中心体育馆", "name":"000165.jpg"},
{"lat":22.7057597, "lng":114.2197703, "address":"大运中心体育馆", "name":"000166.jpg"},
{"lat":22.7278091, "lng":114.2427593, "address":"宝能城市广场", "name":"000167.jpg"},
{"lat":22.5377150, "lng":114.0485114, "address":"仙人掌餐厅", "name":"000168.jpg"},
{"lat":22.5377109, "lng":114.0484084, "address":"McCawley's", "name":"000169.jpg"},
{"lat":22.5359731, "lng":114.0488832, "address":"Cold", "name":"000170.jpg"},
{"lat":22.5386213, "lng":114.0485645, "address":"Cold", "name":"000171.jpg"},
{"lat":22.5392569, "lng":114.0552623, "address":"New", "name":"000172.jpg"},
{"lat":22.6726630, "lng":114.2171840, "address":"水晶之城", "name":"000173.jpg"},
{"lat":22.6697373, "lng":114.2079105, "address":"水晶之城", "name":"000174.jpg"},
{"lat":22.6499076, "lng":114.1869525, "address":"Teabucks", "name":"000175.jpg"},
{"lat":22.6491387, "lng":114.1874380, "address":"IGA", "name":"000176.jpg"},
{"lat":22.6516776, "lng":114.1873061, "address":"IGA", "name":"000177.jpg"},
{"lat":22.7052464, "lng":114.2133078, "address":"阳光天健城", "name":"000178.jpg"},
{"lat":22.6940835, "lng":114.2210745, "address":"龙岗COCO", "name":"000179.jpg"},
{"lat":22.6002505, "lng":114.3095222, "address":"京基喜来登度假酒店", "name":"000180.jpg"},
{"lat":22.5984990, "lng":114.2977295, "address":"京基喜来登度假酒店", "name":"000181.jpg"},
{"lat":22.4882950, "lng":113.9179581, "address":"Backstube", "name":"000182.jpg"},
{"lat":22.4928527, "lng":113.9114420, "address":"蛇口网谷", "name":"000183.jpg"},
{"lat":22.6192026, "lng":114.1344145, "address":"百合医院", "name":"000184.jpg"},
{"lat":22.6132480, "lng":114.1394409, "address":"布吉高级中学", "name":"000185.jpg"},
{"lat":22.5300945, "lng":113.9223089, "address":"布吉高级中学", "name":"000186.jpg"},
{"lat":22.5903910, "lng":114.2823983, "address":"盐港东", "name":"000187.jpg"},
{"lat":22.4807206, "lng":113.9284041, "address":"Captain's", "name":"000188.jpg"},
{"lat":22.6981074, "lng":113.8107556, "address":"Captain's", "name":"000189.jpg"},
{"lat":22.5057945, "lng":113.9178392, "address":"蛇口沃尔玛", "name":"000190.jpg"},
{"lat":22.5065025, "lng":113.9184350, "address":"蛇口沃尔玛", "name":"000191.jpg"},
{"lat":22.5389590, "lng":114.0481343, "address":"子都概念川菜", "name":"000192.jpg"},
{"lat":22.4497797, "lng":114.5025775, "address":"穿鼻岩", "name":"000193.jpg"},
{"lat":22.5567243, "lng":114.0288245, "address":"穿鼻岩", "name":"000194.jpg"},
{"lat":22.5676601, "lng":114.0304602, "address":"Dingdangda", "name":"000195.jpg"},
{"lat":22.5687459, "lng":114.0266057, "address":"Dingdangda", "name":"000196.jpg"},
{"lat":22.5224150, "lng":113.9248937, "address":"华夏星光国际影城", "name":"000197.jpg"},
{"lat":22.5216816, "lng":113.9242258, "address":"华夏星光国际影城", "name":"000198.jpg"},
{"lat":22.5107667, "lng":113.8979005, "address":"月亮湾", "name":"000199.jpg"},
{"lat":22.5654710, "lng":113.8554231, "address":"月亮湾", "name":"000200.jpg"},
{"lat":22.5377020, "lng":113.9104717, "address":"大新小学", "name":"000201.jpg"},
{"lat":22.5412964, "lng":113.9103054, "address":"星海名城", "name":"000202.jpg"},
{"lat":22.5411231, "lng":113.9099221, "address":"星海名城", "name":"000203.jpg"},
{"lat":22.5376970, "lng":113.9100972, "address":"大新小学", "name":"000204.jpg"},
{"lat":22.5625644, "lng":114.0313814, "address":"广中医深圳医院", "name":"000205.jpg"},
{"lat":22.5667147, "lng":113.9777334, "address":"广中医深圳医院", "name":"000206.jpg"},
{"lat":22.4879775, "lng":113.9087791, "address":"蛇口大厦", "name":"000207.jpg"},
{"lat":22.4879305, "lng":113.9089588, "address":"蛇口大厦", "name":"000208.jpg"},
{"lat":22.5448480, "lng":113.9156875, "address":"南头古城南门", "name":"000209.jpg"},
{"lat":22.5218922, "lng":113.9264051, "address":"招商银行", "name":"000210.jpg"},
{"lat":22.5202717, "lng":113.9332824, "address":"保利国际影城", "name":"000211.jpg"},
{"lat":22.5855060, "lng":113.9965700, "address":"保利国际影城", "name":"000212.jpg"},
{"lat":22.6095982, "lng":113.9337814, "address":"西丽果场", "name":"000213.jpg"},
{"lat":22.5486346, "lng":113.9602456, "address":"西丽果场", "name":"000214.jpg"},
{"lat":22.7052644, "lng":114.2206892, "address":"龙岗老干中心", "name":"000215.jpg"},
{"lat":22.6052461, "lng":114.0522309, "address":"城市酒店", "name":"000216.jpg"},
{"lat":22.6035555, "lng":114.0548194, "address":"龙溪山庄C栋", "name":"000217.jpg"},
{"lat":22.6039760, "lng":114.0470322, "address":"滢水山庄", "name":"000218.jpg"},
{"lat":22.5298693, "lng":113.9238403, "address":"七天连锁酒店", "name":"000219.jpg"},
{"lat":22.5201693, "lng":113.9318718, "address":"海岸城", "name":"000220.jpg"},
{"lat":22.5210234, "lng":113.9254896, "address":"深圳南山书城", "name":"000221.jpg"},
{"lat":22.5209095, "lng":113.9256693, "address":"深圳南山书城", "name":"000222.jpg"},
{"lat":22.5199728, "lng":113.9320455, "address":"海岸城", "name":"000223.jpg"},
{"lat":22.5411206, "lng":114.1278813, "address":"KAIDA", "name":"000224.jpg"},
{"lat":22.6474946, "lng":114.0616145, "address":"KAIDA", "name":"000225.jpg"},
{"lat":22.5634276, "lng":113.8535077, "address":"西乡南", "name":"000226.jpg"},
{"lat":22.5694859, "lng":113.8632400, "address":"Wandu", "name":"000227.jpg"},
{"lat":22.5704418, "lng":113.8641690, "address":"KFC", "name":"000228.jpg"},
{"lat":22.5702556, "lng":113.8640115, "address":"真功夫", "name":"000229.jpg"},
{"lat":22.5703569, "lng":113.8640911, "address":"人人乐", "name":"000230.jpg"},
{"lat":22.5935299, "lng":113.8807883, "address":"Bao'an", "name":"000231.jpg"},
{"lat":22.5925220, "lng":113.8809832, "address":"Bao'an", "name":"000232.jpg"},
{"lat":22.5932760, "lng":113.8800096, "address":"Guangzhou", "name":"000233.jpg"},
{"lat":22.6024570, "lng":113.8618735, "address":"Guangzhou", "name":"000234.jpg"},
{"lat":22.5304620, "lng":113.9241107, "address":"迪街咖啡", "name":"000235.jpg"},
{"lat":22.5114867, "lng":113.9482983, "address":"迪街咖啡", "name":"000236.jpg"},
{"lat":22.5613307, "lng":113.8803514, "address":"面点王", "name":"000237.jpg"},
{"lat":22.5577894, "lng":114.1538342, "address":"莲塘口岸", "name":"000238.jpg"},
{"lat":22.6292374, "lng":114.0739710, "address":"Yangmei", "name":"000239.jpg"},
{"lat":22.6304506, "lng":114.0558205, "address":"Yangmei", "name":"000240.jpg"},
{"lat":22.5344907, "lng":114.0436803, "address":"Getaway3DS", "name":"000241.jpg"},
{"lat":22.5951160, "lng":114.2459124, "address":"乐群小学", "name":"000242.jpg"},
{"lat":22.5954902, "lng":114.2458103, "address":"乐群小学", "name":"000243.jpg"},
{"lat":22.5972900, "lng":114.2437045, "address":"新港大厦", "name":"000244.jpg"},
{"lat":22.5976270, "lng":114.2431883, "address":"新港大厦", "name":"000245.jpg"},
{"lat":22.5350917, "lng":114.0636988, "address":"福青龙华天假日酒店", "name":"000246.jpg"},
{"lat":22.5389555, "lng":114.0626340, "address":"彩福大厦", "name":"000247.jpg"},
{"lat":22.5344157, "lng":114.0635145, "address":"中国农业银行", "name":"000248.jpg"},
{"lat":22.6242565, "lng":114.0560252, "address":"阳光湾畔", "name":"000249.jpg"},
{"lat":22.5138527, "lng":113.9277562, "address":"北师大附小", "name":"000250.jpg"},
{"lat":22.5081720, "lng":113.9295504, "address":"北师大附中", "name":"000251.jpg"},
{"lat":22.5180940, "lng":113.9278875, "address":"北师大附中", "name":"000252.jpg"},
{"lat":22.5538461, "lng":113.8767294, "address":"宝安海滨广场", "name":"000253.jpg"},
{"lat":22.5546364, "lng":113.8770701, "address":"宝安海滨广场", "name":"000254.jpg"},
{"lat":22.5593005, "lng":113.8776413, "address":"宝安行政中心", "name":"000255.jpg"},
{"lat":22.5594466, "lng":113.8771639, "address":"宝安行政中心", "name":"000256.jpg"},
{"lat":22.7186210, "lng":114.0499550, "address":"吉盛酒店", "name":"000257.jpg"},
{"lat":22.7466616, "lng":113.8212554, "address":"吉盛酒店", "name":"000258.jpg"},
{"lat":22.6758827, "lng":113.9438584, "address":"溪之谷", "name":"000259.jpg"},
{"lat":22.6810745, "lng":113.9508616, "address":"溪之谷", "name":"000260.jpg"},
{"lat":22.6807814, "lng":113.9736718, "address":"上横朗", "name":"000261.jpg"},
{"lat":22.6800006, "lng":113.9764244, "address":"上横朗", "name":"000262.jpg"},
{"lat":22.5512713, "lng":114.0550199, "address":"少年宫", "name":"000263.jpg"},
{"lat":22.5433603, "lng":114.0477265, "address":"少年宫", "name":"000264.jpg"},
{"lat":22.5420897, "lng":114.0529735, "address":"市民广场西", "name":"000265.jpg"},
{"lat":22.5404029, "lng":114.0565932, "address":"市民广场西", "name":"000266.jpg"},
{"lat":22.5431520, "lng":114.0561243, "address":"市民广场东", "name":"000267.jpg"},
{"lat":22.5334175, "lng":114.0518975, "address":"市民广场东", "name":"000268.jpg"},
{"lat":22.5713724, "lng":113.8438603, "address":"西乡北", "name":"000269.jpg"},
{"lat":22.7312326, "lng":114.2281494, "address":"Decathlon", "name":"000270.jpg"},
{"lat":22.7312554, "lng":114.2276244, "address":"Decathlon", "name":"000271.jpg"},
{"lat":22.7229969, "lng":114.2330875, "address":"KFC", "name":"000272.jpg"},
{"lat":22.7228948, "lng":114.2328542, "address":"天虹商场", "name":"000273.jpg"},
{"lat":22.7106662, "lng":114.2081490, "address":"天虹商场", "name":"000274.jpg"},
{"lat":22.7114025, "lng":114.2190710, "address":"徑牛尾", "name":"000275.jpg"},
{"lat":22.7118718, "lng":114.2221641, "address":"求水顶", "name":"000276.jpg"},
{"lat":22.6736431, "lng":114.0021157, "address":"求水顶", "name":"000277.jpg"},
{"lat":22.5760068, "lng":114.1693639, "address":"求水岭", "name":"000278.jpg"},
{"lat":22.6336345, "lng":113.9656931, "address":"求水岭", "name":"000279.jpg"},
{"lat":22.5740369, "lng":114.1966465, "address":"万花屏", "name":"000280.jpg"},
{"lat":22.5694740, "lng":114.0722030, "address":"笔架山水厂", "name":"000281.jpg"},
{"lat":22.5705284, "lng":114.0729877, "address":"笔架山水厂", "name":"000282.jpg"},
{"lat":22.6135940, "lng":114.1868067, "address":"中国石化", "name":"000283.jpg"},
{"lat":22.6119920, "lng":114.1869272, "address":"中国石化", "name":"000284.jpg"},
{"lat":22.7966546, "lng":114.3371574, "address":"Nocti", "name":"000285.jpg"},
{"lat":22.5407034, "lng":114.0910111, "address":"Hawa", "name":"000286.jpg"},
{"lat":22.7146559, "lng":114.0339804, "address":"Hawa", "name":"000287.jpg"},
{"lat":22.5337559, "lng":113.9637178, "address":"京基百納·御景东方", "name":"000288.jpg"},
{"lat":22.5492689, "lng":114.0841432, "address":"华强北", "name":"000289.jpg"},
{"lat":22.5491632, "lng":113.9698869, "address":"Portofino", "name":"000290.jpg"},
{"lat":22.5621332, "lng":114.1248073, "address":"Portofino", "name":"000291.jpg"},
{"lat":22.5393801, "lng":114.0564653, "address":"太平洋咖啡", "name":"000292.jpg"},
{"lat":22.6389715, "lng":114.0250082, "address":"龙华税务局", "name":"000293.jpg"},
{"lat":22.6199596, "lng":114.0291353, "address":"铁路桥", "name":"000294.jpg"},
{"lat":22.6294676, "lng":114.0256247, "address":"世纪春城", "name":"000295.jpg"},
{"lat":22.6176256, "lng":114.0298461, "address":"铁路桥", "name":"000296.jpg"},
{"lat":22.6385679, "lng":114.0254856, "address":"龙华税务局", "name":"000297.jpg"},
{"lat":22.6316659, "lng":114.0255791, "address":"世纪春城", "name":"000298.jpg"},
{"lat":22.6457022, "lng":114.0287923, "address":"龙华第二实验学校", "name":"000299.jpg"},
{"lat":22.6415435, "lng":114.0266336, "address":"风和日丽", "name":"000300.jpg"},
{"lat":22.6478880, "lng":114.0308063, "address":"龙华第二实验学校", "name":"000301.jpg"},
{"lat":22.6017742, "lng":114.0412708, "address":"书香门第", "name":"000302.jpg"},
{"lat":22.6422762, "lng":114.0262849, "address":"风和日丽", "name":"000303.jpg"},
{"lat":22.6056441, "lng":114.0402450, "address":"惠鑫公寓", "name":"000304.jpg"},
{"lat":22.5986691, "lng":114.2962189, "address":"中兴华泰酒店", "name":"000305.jpg"},
{"lat":22.7062156, "lng":114.3162927, "address":"中兴华泰酒店", "name":"000306.jpg"},
{"lat":22.5727514, "lng":114.0517298, "address":"绿化大厦", "name":"000307.jpg"},
{"lat":22.5605873, "lng":114.0281213, "address":"青海大酒店", "name":"000308.jpg"},
{"lat":22.5511395, "lng":113.9808258, "address":"侨城一号广场", "name":"000309.jpg"},
{"lat":22.5462019, "lng":113.9858002, "address":"华侨城医院", "name":"000310.jpg"},
{"lat":22.5485719, "lng":114.0052185, "address":"经济犯罪侦察局", "name":"000311.jpg"},
{"lat":22.5504022, "lng":114.0051529, "address":"侨香三道南", "name":"000312.jpg"},
{"lat":22.5482846, "lng":114.0089199, "address":"市眼科医院", "name":"000313.jpg"},
{"lat":22.5555572, "lng":114.0131544, "address":"金地网球中心", "name":"000314.jpg"},
{"lat":22.5552067, "lng":114.0138742, "address":"金地网球中心", "name":"000315.jpg"},
{"lat":22.5552503, "lng":114.0175110, "address":"枫丹雅苑", "name":"000316.jpg"},
{"lat":22.5562457, "lng":114.0266618, "address":"景田沃尔玛", "name":"000317.jpg"},
{"lat":22.5561069, "lng":114.0277871, "address":"景田沃尔玛", "name":"000318.jpg"},
{"lat":22.5577157, "lng":114.0280420, "address":"福田外语学校西", "name":"000319.jpg"},
{"lat":22.5578856, "lng":114.0274638, "address":"福田外语学校西", "name":"000320.jpg"},
{"lat":22.5605850, "lng":114.0260011, "address":"北环香梅北天桥", "name":"000321.jpg"},
{"lat":22.5590051, "lng":114.0311972, "address":"孔亮火锅", "name":"000322.jpg"},
{"lat":22.5591304, "lng":114.0352352, "address":"四川豆花", "name":"000323.jpg"},
{"lat":22.5589795, "lng":114.0351910, "address":"金泰街市", "name":"000324.jpg"},
{"lat":22.5601480, "lng":114.0270822, "address":"新旺角粉面店", "name":"000325.jpg"},
{"lat":22.5601158, "lng":114.0269508, "address":"兰州正宗牛肉拉面", "name":"000326.jpg"},
{"lat":22.5600737, "lng":114.0267604, "address":"沙县小吃", "name":"000327.jpg"},
{"lat":22.5600390, "lng":114.0265726, "address":"南北药行", "name":"000328.jpg"},
{"lat":22.5507749, "lng":114.2250083, "address":"南北药行", "name":"000329.jpg"},
{"lat":22.5909376, "lng":114.0980942, "address":"清水河", "name":"000330.jpg"},
{"lat":22.4869200, "lng":113.9102940, "address":"Kosmo", "name":"000331.jpg"},
{"lat":22.6688711, "lng":113.8244663, "address":"Kosmo", "name":"000332.jpg"},
{"lat":22.5704265, "lng":113.8617783, "address":"深圳邦健生物医疗设备股份有限公司", "name":"000333.jpg"},
{"lat":22.5167118, "lng":113.9184099, "address":"南海小学", "name":"000334.jpg"},
{"lat":22.7444786, "lng":113.8734566, "address":"南海小学", "name":"000335.jpg"},
{"lat":22.6218447, "lng":114.0495169, "address":"Tesla", "name":"000336.jpg"},
{"lat":22.5436204, "lng":114.1023170, "address":"Tesla", "name":"000337.jpg"},
{"lat":22.6728522, "lng":114.0247801, "address":"Longhua", "name":"000338.jpg"},
{"lat":22.5184690, "lng":114.0660695, "address":"Longhua", "name":"000339.jpg"},
{"lat":22.5382361, "lng":114.0484903, "address":"The", "name":"000340.jpg"},
{"lat":22.4876810, "lng":113.9162104, "address":"Dial", "name":"000341.jpg"},
{"lat":22.6519922, "lng":114.0619855, "address":"The", "name":"000342.jpg"},
{"lat":22.5992623, "lng":114.3037008, "address":"太平洋咖啡", "name":"000343.jpg"},
{"lat":22.6008452, "lng":114.3061813, "address":"深圳大梅沙京基海湾大酒店", "name":"000344.jpg"},
{"lat":22.7505446, "lng":113.8262061, "address":"深圳大梅沙京基海湾大酒店", "name":"000345.jpg"},
{"lat":22.5545536, "lng":114.1443736, "address":"兆记九里香客家土菜馆", "name":"000346.jpg"},
{"lat":22.5543885, "lng":114.1443736, "address":"深圳市鑫辉装饰工程有限公司", "name":"000347.jpg"},
{"lat":22.5543061, "lng":114.1439579, "address":"牛味馆火锅店", "name":"000348.jpg"},
{"lat":22.5545877, "lng":114.1441368, "address":"牛味馆火锅店", "name":"000349.jpg"},
{"lat":22.5532098, "lng":114.1434416, "address":"罗芳小学", "name":"000350.jpg"},
{"lat":22.5525715, "lng":114.1436327, "address":"茶物语", "name":"000351.jpg"},
{"lat":22.5532774, "lng":114.1451288, "address":"名泰轩", "name":"000352.jpg"},
{"lat":22.5529244, "lng":114.1433888, "address":"芳都酒楼", "name":"000353.jpg"},
{"lat":22.5545764, "lng":114.1434985, "address":"佳年奔驰宝马维修", "name":"000354.jpg"},
{"lat":22.5544600, "lng":114.1435229, "address":"深圳市特力路德汽车维修有限公司", "name":"000355.jpg"},
{"lat":22.5543474, "lng":114.1435351, "address":"宝马奔驰汽车专职维修", "name":"000356.jpg"},
{"lat":22.5538518, "lng":114.1435067, "address":"邓禄普轮胎", "name":"000357.jpg"},
{"lat":22.5537129, "lng":114.1434782, "address":"中国体育彩票", "name":"000358.jpg"},
{"lat":22.5523763, "lng":114.1429091, "address":"罗芳路65号门市", "name":"000359.jpg"},
{"lat":22.5521885, "lng":114.1432790, "address":"新一天生活超市", "name":"000360.jpg"},
{"lat":22.5521285, "lng":114.1432790, "address":"和记猪肚鸡", "name":"000361.jpg"},
{"lat":22.5520459, "lng":114.1434620, "address":"罗芳小学", "name":"000362.jpg"},
{"lat":22.5491839, "lng":114.1421407, "address":"青云楼", "name":"000363.jpg"},
{"lat":22.5501543, "lng":114.1431681, "address":"国大药房", "name":"000364.jpg"},
{"lat":22.5502492, "lng":114.1440414, "address":"中国邮政", "name":"000365.jpg"},
{"lat":22.5479202, "lng":114.1418138, "address":"中震酒楼", "name":"000366.jpg"},
{"lat":22.5500654, "lng":114.1424925, "address":"仙之湖酒店", "name":"000367.jpg"},
{"lat":22.5485262, "lng":114.1419772, "address":"罗芳南路", "name":"000368.jpg"},
{"lat":22.5439559, "lng":114.1389611, "address":"罗芳三岔河", "name":"000369.jpg"},
{"lat":22.5443619, "lng":114.1425283, "address":"阿具客家土菜", "name":"000370.jpg"},
{"lat":22.5446211, "lng":114.1437301, "address":"阿具客家土菜", "name":"000371.jpg"},
{"lat":22.5473257, "lng":114.1479060, "address":"东方学校", "name":"000372.jpg"},
{"lat":22.5443439, "lng":114.1437265, "address":"罗芳水质净化厂", "name":"000373.jpg"},
{"lat":22.5441388, "lng":114.1476264, "address":"罗芳水质净化厂", "name":"000374.jpg"},
{"lat":22.5448513, "lng":114.1481927, "address":"中国农业银行", "name":"000375.jpg"},
{"lat":22.5514037, "lng":114.1502686, "address":"深圳广播电视大学罗湖分校", "name":"000376.jpg"},
{"lat":22.5517898, "lng":114.1511878, "address":"罗湖党校", "name":"000377.jpg"},
{"lat":22.5518994, "lng":114.1514377, "address":"罗湖党校", "name":"000378.jpg"},
{"lat":22.6037108, "lng":114.4225044, "address":"Xinlan", "name":"000379.jpg"},
{"lat":22.5359233, "lng":113.9215396, "address":"Xinlan", "name":"000380.jpg"},
{"lat":22.5456268, "lng":113.9263734, "address":"L'Hermitage", "name":"000381.jpg"},
{"lat":22.5478812, "lng":113.9175985, "address":"天主堂", "name":"000382.jpg"},
{"lat":22.6685870, "lng":114.1411126, "address":"天主堂", "name":"000383.jpg"},
{"lat":22.5374125, "lng":113.9292581, "address":"2楼西餐厅", "name":"000384.jpg"},
{"lat":22.5365947, "lng":114.1316033, "address":"2楼西餐厅", "name":"000385.jpg"},
{"lat":22.5541012, "lng":114.1259973, "address":"嘉庆大酒楼", "name":"000386.jpg"},
{"lat":22.5521378, "lng":114.1252332, "address":"冯记茶餐厅", "name":"000387.jpg"},
{"lat":22.5712471, "lng":113.8614765, "address":"BesTom", "name":"000388.jpg"},
{"lat":22.6075258, "lng":114.1599962, "address":"BesTom", "name":"000389.jpg"},
{"lat":22.6042715, "lng":114.1702424, "address":"大望社康", "name":"000390.jpg"},
{"lat":22.6057605, "lng":114.1701532, "address":"大望小学", "name":"000391.jpg"},
{"lat":22.6052116, "lng":114.1701666, "address":"大望小学", "name":"000392.jpg"},
{"lat":22.6058501, "lng":114.1674890, "address":"大望球场", "name":"000393.jpg"},
{"lat":22.6055465, "lng":114.1631162, "address":"大望桥", "name":"000394.jpg"},
{"lat":22.6060015, "lng":114.1629528, "address":"望桐路西", "name":"000395.jpg"},
{"lat":22.6002475, "lng":114.1811262, "address":"塘坑仔西", "name":"000396.jpg"},
{"lat":22.7339648, "lng":114.2041415, "address":"官井头", "name":"000397.jpg"},
{"lat":22.6042727, "lng":114.1173770, "address":"可域酒店", "name":"000398.jpg"},
{"lat":22.6044510, "lng":114.1175084, "address":"百里汇", "name":"000399.jpg"},
{"lat":22.6006011, "lng":114.1223176, "address":"万科红广场", "name":"000400.jpg"},
{"lat":22.6012693, "lng":114.1157265, "address":"百合酒店", "name":"000401.jpg"},
{"lat":22.6010923, "lng":114.1169174, "address":"7-Eleven", "name":"000402.jpg"},
{"lat":22.7149221, "lng":114.2357428, "address":"国美电器", "name":"000403.jpg"},
{"lat":22.5663411, "lng":114.1780711, "address":"深港驾校训练场", "name":"000404.jpg"},
{"lat":22.5440156, "lng":114.1374696, "address":"深圳市深水水务咨询有限公司", "name":"000405.jpg"},
{"lat":22.6740204, "lng":114.2240669, "address":"深圳市深水水务咨询有限公司", "name":"000406.jpg"},
{"lat":22.5314461, "lng":114.1108770, "address":"深港休闲中心", "name":"000407.jpg"},
{"lat":22.5316538, "lng":114.1108493, "address":"苏记茶餐厅", "name":"000408.jpg"},
{"lat":22.5315002, "lng":114.1111389, "address":"华侨酒店", "name":"000409.jpg"},
{"lat":22.5305390, "lng":114.1113644, "address":"深圳月湾商务酒店", "name":"000410.jpg"},
{"lat":22.5313240, "lng":114.1112212, "address":"商务中心平价超市", "name":"000411.jpg"},
{"lat":22.5310724, "lng":114.1112822, "address":"AA家中西快餐", "name":"000412.jpg"},
{"lat":22.6121197, "lng":114.0361516, "address":"鑫茂公寓", "name":"000413.jpg"},
{"lat":22.6127110, "lng":114.0402783, "address":"民治天虹", "name":"000414.jpg"},
{"lat":22.5252521, "lng":114.0233500, "address":"名师理发店", "name":"000415.jpg"},
{"lat":22.5253371, "lng":114.0234075, "address":"捷惠汽配", "name":"000416.jpg"},
{"lat":22.5254445, "lng":114.0230479, "address":"捷惠汽配", "name":"000417.jpg"},
{"lat":22.5254683, "lng":114.0235086, "address":"鑫鑫文具", "name":"000418.jpg"},
{"lat":22.5255439, "lng":114.0235664, "address":"鑫鑫文具", "name":"000419.jpg"},
{"lat":22.5679731, "lng":113.8982495, "address":"深圳书城宝安店", "name":"000420.jpg"},
{"lat":22.7808901, "lng":113.9018726, "address":"红花山", "name":"000421.jpg"},
{"lat":22.7852187, "lng":113.8746834, "address":"合水口", "name":"000422.jpg"},
{"lat":22.7840276, "lng":113.8630643, "address":"薯田埔", "name":"000423.jpg"},
{"lat":22.7808753, "lng":113.8861012, "address":"公明广场", "name":"000424.jpg"},
{"lat":22.7661331, "lng":113.9386055, "address":"光明大街", "name":"000425.jpg"},
{"lat":22.6707375, "lng":113.9865980, "address":"阳台山东", "name":"000426.jpg"},
{"lat":22.8095683, "lng":113.9642451, "address":"深理工", "name":"000427.jpg"},
{"lat":22.5255908, "lng":113.9792084, "address":"深理工", "name":"000428.jpg"},
{"lat":22.5264762, "lng":113.9867164, "address":"曲水湾", "name":"000429.jpg"},
{"lat":22.5251644, "lng":113.9858790, "address":"飞来的爱", "name":"000430.jpg"},
{"lat":22.5171989, "lng":114.0395241, "address":"石厦南", "name":"000431.jpg"},
{"lat":22.5122122, "lng":114.0464744, "address":"红树绿洲", "name":"000432.jpg"},
{"lat":22.5258047, "lng":114.0454060, "address":"石厦学校", "name":"000433.jpg"},
{"lat":22.5154856, "lng":114.0384477, "address":"自行车租赁点", "name":"000434.jpg"},
{"lat":22.5242329, "lng":114.0381466, "address":"家乐福新洲店", "name":"000435.jpg"},
{"lat":22.5113978, "lng":114.0471928, "address":"民润超市", "name":"000436.jpg"},
{"lat":22.5111996, "lng":114.0442531, "address":"好又乐超市", "name":"000437.jpg"},
{"lat":22.5127160, "lng":114.0416621, "address":"美宜佳", "name":"000438.jpg"},
{"lat":22.4871394, "lng":113.9266419, "address":"蛇口广场", "name":"000439.jpg"},
{"lat":22.4888561, "lng":113.9279807, "address":"蛇口新街", "name":"000440.jpg"},
{"lat":22.4910270, "lng":113.9236635, "address":"蛇口戏院", "name":"000441.jpg"},
{"lat":22.4860802, "lng":113.9247390, "address":"蛇口戏院", "name":"000442.jpg"},
{"lat":22.5243641, "lng":114.0413683, "address":"永和大王快餐", "name":"000443.jpg"},
{"lat":22.4807775, "lng":113.9285223, "address":"永和大王快餐", "name":"000444.jpg"},
{"lat":22.4864398, "lng":113.9251135, "address":"蛇口渔港", "name":"000445.jpg"},
{"lat":22.5968975, "lng":114.5089375, "address":"大鹏城", "name":"000446.jpg"},
{"lat":22.5652703, "lng":113.9294246, "address":"大鹏城", "name":"000447.jpg"},
{"lat":22.6231688, "lng":113.8462695, "address":"江淮好运", "name":"000448.jpg"},
{"lat":22.5603376, "lng":114.0277324, "address":"七街公馆便利店", "name":"000449.jpg"},
{"lat":22.5601988, "lng":114.0276519, "address":"七街公馆便利店", "name":"000450.jpg"},
{"lat":22.5425955, "lng":114.0350141, "address":"老毕鲁菜", "name":"000451.jpg"},
{"lat":22.5425781, "lng":114.0348505, "address":"六六重庆火锅", "name":"000452.jpg"},
{"lat":22.5568018, "lng":114.0289698, "address":"六六重庆火锅", "name":"000453.jpg"},
{"lat":22.5490585, "lng":114.0361465, "address":"中国邮政", "name":"000454.jpg"},
{"lat":22.5598363, "lng":114.0250107, "address":"中国石油", "name":"000455.jpg"},
{"lat":22.5604685, "lng":114.0267086, "address":"警元酒店", "name":"000456.jpg"},
{"lat":22.5605994, "lng":114.0269551, "address":"警元酒店", "name":"000457.jpg"},
{"lat":22.5614672, "lng":114.0324979, "address":"实华酒店", "name":"000458.jpg"},
{"lat":22.5611742, "lng":114.0331541, "address":"实华酒店", "name":"000459.jpg"},
{"lat":22.5614046, "lng":114.0328245, "address":"西湖春天", "name":"000460.jpg"},
{"lat":22.5579787, "lng":114.0305236, "address":"中国民生银行", "name":"000461.jpg"},
{"lat":22.5579054, "lng":114.0309252, "address":"永和豆浆王", "name":"000462.jpg"},
{"lat":22.5581210, "lng":114.0311680, "address":"富华文具", "name":"000463.jpg"},
{"lat":22.5580240, "lng":114.0310746, "address":"香梅酒店", "name":"000464.jpg"},
{"lat":22.5561634, "lng":114.0306873, "address":"金满堂砂锅粥", "name":"000465.jpg"},
{"lat":22.5576516, "lng":114.0375077, "address":"中国光大银行", "name":"000466.jpg"},
{"lat":22.5738809, "lng":114.0310980, "address":"cache", "name":"000467.jpg"},
{"lat":22.6838511, "lng":114.1356924, "address":"Dowtop", "name":"000468.jpg"},
{"lat":22.5537367, "lng":114.2265426, "address":"景生灯饰", "name":"000469.jpg"},
{"lat":22.5365939, "lng":114.1120742, "address":"CRE中铁快运到达配送中心", "name":"000470.jpg"},
{"lat":22.5488540, "lng":114.1004409, "address":"CRE中铁快运到达配送中心", "name":"000471.jpg"},
{"lat":22.5494881, "lng":114.1002788, "address":"哎呦不错", "name":"000472.jpg"},
{"lat":22.5489064, "lng":114.1001230, "address":"哎呦不错", "name":"000473.jpg"},
{"lat":22.6535063, "lng":114.0607116, "address":"华为单身公寓北", "name":"000474.jpg"},
{"lat":22.6000606, "lng":113.9842511, "address":"惟品门", "name":"000475.jpg"},
{"lat":22.6075763, "lng":114.0296833, "address":"惟品门", "name":"000476.jpg"},
{"lat":22.6231070, "lng":114.0288704, "address":"国安居", "name":"000477.jpg"},
{"lat":22.5475486, "lng":113.9308865, "address":"科技中一路", "name":"000478.jpg"},
{"lat":22.5473754, "lng":113.9281706, "address":"研祥科技大厦", "name":"000479.jpg"},
{"lat":22.5210631, "lng":114.0513475, "address":"研祥科技大厦", "name":"000480.jpg"},
{"lat":22.6905762, "lng":113.7973656, "address":"东海百货", "name":"000481.jpg"},
{"lat":22.6923572, "lng":113.8013047, "address":"永家福购物广场", "name":"000482.jpg"},
{"lat":22.6897622, "lng":113.7956590, "address":"基达玩具（深圳）有限公司", "name":"000483.jpg"},
{"lat":22.6918966, "lng":113.7983468, "address":"基达玩具（深圳）有限公司", "name":"000484.jpg"},
{"lat":22.6908507, "lng":113.7972703, "address":"中国电信", "name":"000485.jpg"},
{"lat":22.6903706, "lng":113.7970932, "address":"中国电信", "name":"000486.jpg"},
{"lat":22.6907863, "lng":113.7971791, "address":"周六福珠宝", "name":"000487.jpg"},
{"lat":22.6926471, "lng":113.7962697, "address":"周六福珠宝", "name":"000488.jpg"},
{"lat":22.5340367, "lng":114.0588939, "address":"皇庭V酒店", "name":"000489.jpg"},
{"lat":22.5457510, "lng":114.0933622, "address":"中国共产党深圳市委员会", "name":"000490.jpg"},
{"lat":22.5064920, "lng":113.9105039, "address":"中国共产党深圳市委员会", "name":"000491.jpg"},
{"lat":22.5486744, "lng":114.0629718, "address":"福景大厦", "name":"000492.jpg"},
{"lat":22.6876132, "lng":113.7921794, "address":"福景大厦", "name":"000493.jpg"},
{"lat":22.5490035, "lng":114.0875644, "address":"长龙公司", "name":"000494.jpg"},
{"lat":22.6013355, "lng":114.0402074, "address":"长龙公司", "name":"000495.jpg"},
{"lat":22.5462992, "lng":114.0566279, "address":"深圳博物馆", "name":"000496.jpg"},
{"lat":22.7377940, "lng":114.3717742, "address":"坑梓革命烈士纪念碑", "name":"000497.jpg"},
{"lat":22.5696747, "lng":114.0635926, "address":"深圳革命烈士纪念碑", "name":"000498.jpg"},
{"lat":22.7578999, "lng":114.2456457, "address":"龙岗人民革命烈士纪念碑", "name":"000499.jpg"},
{"lat":22.5362244, "lng":114.1314188, "address":"龙岗人民革命烈士纪念碑", "name":"000500.jpg"},
{"lat":22.6392276, "lng":114.0621104, "address":"明月阁休闲会所", "name":"000501.jpg"},
{"lat":22.6431783, "lng":114.0614737, "address":"中海日辉台", "name":"000502.jpg"},
{"lat":22.6545849, "lng":114.0612104, "address":"宝华药行", "name":"000503.jpg"},
{"lat":22.6551640, "lng":114.0612215, "address":"凯伦眼镜", "name":"000504.jpg"},
{"lat":22.6560307, "lng":114.0612113, "address":"曼岛咖啡", "name":"000505.jpg"},
{"lat":22.5374584, "lng":113.9756426, "address":"何香凝美术馆", "name":"000506.jpg"},
{"lat":22.5375288, "lng":113.9756782, "address":"何香凝美术馆", "name":"000507.jpg"},
{"lat":22.6603636, "lng":114.0559670, "address":"冲之社康中心", "name":"000508.jpg"},
{"lat":22.6558767, "lng":114.0631575, "address":"象角塘西", "name":"000509.jpg"},
{"lat":22.6563125, "lng":114.0633966, "address":"象角塘西", "name":"000510.jpg"},
{"lat":22.6566337, "lng":114.0631658, "address":"宝庆宾馆", "name":"000511.jpg"},
{"lat":22.6552040, "lng":114.0624329, "address":"至尊宝桌球城", "name":"000512.jpg"},
{"lat":22.6478946, "lng":114.0610131, "address":"万科城", "name":"000513.jpg"},
{"lat":22.6552641, "lng":114.0595681, "address":"天英租车", "name":"000514.jpg"},
{"lat":22.6553116, "lng":114.0595648, "address":"安时达租车", "name":"000515.jpg"},
{"lat":22.6535171, "lng":114.0616032, "address":"淮扬菜馆", "name":"000516.jpg"},
{"lat":22.6535237, "lng":114.0615183, "address":"金马足浴按摩", "name":"000517.jpg"},
{"lat":22.6566279, "lng":114.0603622, "address":"海南风味餐馆", "name":"000518.jpg"},
{"lat":22.6533195, "lng":114.0602328, "address":"华为单身公寓北", "name":"000519.jpg"},
{"lat":22.6596610, "lng":114.0557283, "address":"冲之社康中心", "name":"000520.jpg"},
{"lat":22.6431938, "lng":114.0610692, "address":"中海日辉台", "name":"000521.jpg"},
{"lat":22.5348989, "lng":114.0491382, "address":"君尚百货中心店", "name":"000522.jpg"},
{"lat":22.5362402, "lng":114.0564400, "address":"深圳星河丽思卡尔顿酒店", "name":"000523.jpg"},
{"lat":22.7305833, "lng":113.8018930, "address":"京基百纳广场", "name":"000524.jpg"},
{"lat":22.5497716, "lng":114.0996395, "address":"希思医疗美容医院", "name":"000525.jpg"},
{"lat":22.5464033, "lng":114.1188913, "address":"远东妇儿科医院", "name":"000526.jpg"},
{"lat":22.5549388, "lng":114.1410443, "address":"工商银行", "name":"000527.jpg"},
{"lat":22.6563835, "lng":114.0614207, "address":"圆通速递", "name":"000528.jpg"},
{"lat":22.6564406, "lng":114.0613848, "address":"顺丰速递", "name":"000529.jpg"},
{"lat":22.6564932, "lng":114.0613132, "address":"韵达快运", "name":"000530.jpg"},
{"lat":22.6565398, "lng":114.0612920, "address":"鲜之臣生活馆", "name":"000531.jpg"},
{"lat":22.6561836, "lng":114.0612106, "address":"鸿发茶烟酒", "name":"000532.jpg"},
{"lat":22.6566151, "lng":114.0609929, "address":"便利e店", "name":"000533.jpg"},
{"lat":22.6566461, "lng":114.0608614, "address":"东北饺子馆", "name":"000534.jpg"},
{"lat":22.6566525, "lng":114.0607873, "address":"母婴世家", "name":"000535.jpg"},
{"lat":22.6566251, "lng":114.0604264, "address":"食尚空间", "name":"000536.jpg"},
{"lat":22.6440476, "lng":114.0556185, "address":"小梧桐", "name":"000537.jpg"},
{"lat":22.6624624, "lng":114.0559166, "address":"岗头市场南", "name":"000538.jpg"},
{"lat":22.6626993, "lng":114.0562775, "address":"岗头市场南", "name":"000539.jpg"},
{"lat":22.5792356, "lng":114.1236572, "address":"松泉公寓", "name":"000540.jpg"},
{"lat":22.5671540, "lng":114.1312578, "address":"松泉公寓", "name":"000541.jpg"},
{"lat":22.5654586, "lng":114.1248511, "address":"康宁医院", "name":"000542.jpg"},
{"lat":22.5732707, "lng":114.1241201, "address":"翠竹大厦", "name":"000543.jpg"},
{"lat":22.5582786, "lng":114.1292574, "address":"明珠学校", "name":"000544.jpg"},
{"lat":22.5547013, "lng":114.1269435, "address":"爱国大厦", "name":"000545.jpg"},
{"lat":22.5520693, "lng":114.1260139, "address":"爱国大厦", "name":"000546.jpg"},
{"lat":22.6375395, "lng":114.0582205, "address":"中国移动营业厅", "name":"000547.jpg"},
{"lat":22.6303189, "lng":114.0553984, "address":"中国移动营业厅", "name":"000548.jpg"},
{"lat":22.6543881, "lng":114.0616124, "address":"润万家", "name":"000549.jpg"},
{"lat":22.6548590, "lng":114.0622718, "address":"潮汕砂锅粥", "name":"000550.jpg"},
{"lat":22.6534746, "lng":114.0614420, "address":"中国邮政储蓄银行", "name":"000551.jpg"},
{"lat":22.6549831, "lng":114.0616463, "address":"家乐通", "name":"000552.jpg"},
{"lat":22.6549909, "lng":114.0615779, "address":"沙县小吃", "name":"000553.jpg"},
{"lat":22.6549976, "lng":114.0619453, "address":"惠佳百货", "name":"000554.jpg"},
{"lat":22.6551653, "lng":114.0609603, "address":"联通明光茂昌4G专营店", "name":"000555.jpg"},
{"lat":22.6552858, "lng":114.0609840, "address":"东盛烟酒商行", "name":"000556.jpg"},
{"lat":22.6553351, "lng":114.0609960, "address":"大小姐", "name":"000557.jpg"},
{"lat":22.6555167, "lng":114.0609967, "address":"荣盛五金交电商行", "name":"000558.jpg"},
{"lat":22.6555759, "lng":114.0610091, "address":"家乐傢俬店", "name":"000559.jpg"},
{"lat":22.6557978, "lng":114.0610200, "address":"惠佳美", "name":"000560.jpg"},
{"lat":22.5615188, "lng":114.1781991, "address":"深圳巴士集团第二分公司", "name":"000561.jpg"},
{"lat":22.6513245, "lng":114.0746013, "address":"99号羽毛球馆", "name":"000562.jpg"},
{"lat":22.5505539, "lng":114.0557428, "address":"少年宫", "name":"000563.jpg"},
{"lat":22.5497753, "lng":114.2269761, "address":"正宗兰州拉面", "name":"000564.jpg"},
{"lat":22.5494063, "lng":114.2264683, "address":"正宗兰州拉面", "name":"000565.jpg"},
{"lat":22.5495159, "lng":114.2264324, "address":"中国移动", "name":"000566.jpg"},
{"lat":22.6921387, "lng":113.8331455, "address":"中国移动", "name":"000567.jpg"},
{"lat":22.5446298, "lng":114.1029019, "address":"大剧院", "name":"000568.jpg"},
{"lat":22.5195861, "lng":113.9233178, "address":"鹅之味", "name":"000569.jpg"},
{"lat":22.5195774, "lng":113.9233633, "address":"清真兰州拉面", "name":"000570.jpg"},
{"lat":22.5195713, "lng":113.9234099, "address":"香港新文华茶餐厅", "name":"000571.jpg"},
{"lat":22.5435656, "lng":113.9160827, "address":"南头古城", "name":"000572.jpg"},
{"lat":22.5405679, "lng":114.1148667, "address":"海底捞火锅", "name":"000573.jpg"},
{"lat":22.5479996, "lng":114.1164178, "address":"路丰桌球城", "name":"000574.jpg"},
{"lat":22.5216953, "lng":114.0547681, "address":"来电(MASH精酿啤酒餐厅)", "name":"000575.jpg"},
{"lat":22.5363332, "lng":113.9666187, "address":"金字塔探秘", "name":"000576.jpg"},
{"lat":22.5096012, "lng":113.9200178, "address":"华影信和影城", "name":"000577.jpg"},
{"lat":22.5157496, "lng":113.9241163, "address":"巴粮坊（长风水产店）", "name":"000578.jpg"},
{"lat":22.6364560, "lng":114.1255435, "address":"巴粮坊（长风水产店）", "name":"000579.jpg"},
{"lat":22.5321875, "lng":113.9097811, "address":"四方小館", "name":"000580.jpg"},
{"lat":22.5358952, "lng":113.9108382, "address":"锦江之星（深圳南山前海路店）", "name":"000581.jpg"},
{"lat":22.6541276, "lng":113.7930649, "address":"机场北", "name":"000582.jpg"},
{"lat":22.7240060, "lng":113.8848488, "address":"农牧美益", "name":"000583.jpg"},
{"lat":22.5379740, "lng":113.9196397, "address":"南山文体育中心", "name":"000584.jpg"},
{"lat":22.5393663, "lng":113.9197569, "address":"南山文体育中心", "name":"000585.jpg"},
{"lat":22.5399504, "lng":114.0482946, "address":"深圳马哥孛罗好日子酒店", "name":"000586.jpg"},
{"lat":22.5426220, "lng":113.9878442, "address":"柴火创客空间", "name":"000587.jpg"},
{"lat":22.5419592, "lng":114.1161426, "address":"新浦江桌球", "name":"000588.jpg"},
{"lat":22.5425910, "lng":114.1177351, "address":"阳光酒店", "name":"000589.jpg"},
{"lat":22.5023957, "lng":113.9242494, "address":"华城超市", "name":"000590.jpg"},
{"lat":22.5031305, "lng":113.9274486, "address":"新生活百货", "name":"000591.jpg"},
{"lat":22.5030623, "lng":113.9275860, "address":"海王星辰", "name":"000592.jpg"},
{"lat":22.5027445, "lng":113.9286073, "address":"瑞朋宠物医院", "name":"000593.jpg"},
{"lat":22.4977072, "lng":113.9265504, "address":"瑞朋宠物医院", "name":"000594.jpg"},
{"lat":22.4978843, "lng":113.9263935, "address":"钱大妈", "name":"000595.jpg"},
{"lat":22.4974809, "lng":113.9201962, "address":"杨梅红国际少儿美术教育基地", "name":"000596.jpg"},
{"lat":22.4994317, "lng":113.9248693, "address":"育才二中", "name":"000597.jpg"},
{"lat":22.4997500, "lng":113.9246628, "address":"育才二中", "name":"000598.jpg"},
{"lat":22.7292736, "lng":113.9219549, "address":"维也纳国际酒店（田寮）", "name":"000599.jpg"},
{"lat":22.5414543, "lng":113.9337097, "address":"建筑与城市规划学院", "name":"000600.jpg"},
{"lat":22.5337585, "lng":114.0642867, "address":"永兴潮州牛肉店", "name":"000601.jpg"},
{"lat":22.6998421, "lng":113.9816647, "address":"深圳市时尚文化创意协会", "name":"000602.jpg"},
{"lat":22.5397334, "lng":113.9809865, "address":"深圳市时尚文化创意协会", "name":"000603.jpg"},
{"lat":22.5432733, "lng":113.9775622, "address":"南山图书馆华侨城分馆", "name":"000604.jpg"},
{"lat":22.5380963, "lng":113.9395640, "address":"南山图书馆华侨城分馆", "name":"000605.jpg"},
{"lat":22.5749371, "lng":113.8531166, "address":"中航健身会", "name":"000606.jpg"},
{"lat":22.5761722, "lng":113.8538324, "address":"泰华阳光海", "name":"000607.jpg"},
{"lat":22.5903123, "lng":114.2755529, "address":"盐田食街", "name":"000608.jpg"},
{"lat":22.7005259, "lng":113.9825056, "address":"ORIENTAL", "name":"000609.jpg"},
{"lat":22.7006124, "lng":113.9823438, "address":"红茶时间", "name":"000610.jpg"},
{"lat":22.7000428, "lng":113.9814156, "address":"雨轩·西餐厅", "name":"000611.jpg"},
{"lat":22.7002038, "lng":113.9814411, "address":"简餐主义", "name":"000612.jpg"},
{"lat":22.7009580, "lng":113.9816668, "address":"简阅书吧", "name":"000613.jpg"},
{"lat":22.6384467, "lng":114.4812003, "address":"简阅书吧", "name":"000614.jpg"},
{"lat":22.4888918, "lng":113.9344400, "address":"东角头", "name":"000615.jpg"},
{"lat":22.4783542, "lng":114.5256965, "address":"西涌一号浴场", "name":"000616.jpg"},
{"lat":22.4815223, "lng":114.5279972, "address":"西涌二号浴场", "name":"000617.jpg"},
{"lat":22.6454303, "lng":114.0260833, "address":"龙华壹方城", "name":"000618.jpg"},
{"lat":22.5474122, "lng":113.9399948, "address":"普联技术", "name":"000619.jpg"},
{"lat":22.5522492, "lng":113.8771450, "address":"普联技术", "name":"000620.jpg"},
{"lat":22.5633003, "lng":114.2338447, "address":"深圳市田东小学", "name":"000621.jpg"},
{"lat":22.5460870, "lng":114.0174253, "address":"自然书吧", "name":"000622.jpg"},
{"lat":22.5457301, "lng":114.0206672, "address":"花卉博览园", "name":"000623.jpg"},
{"lat":22.5481919, "lng":114.0190005, "address":"糖果游戏场", "name":"000624.jpg"},
{"lat":22.5491797, "lng":114.0179287, "address":"下沙纪念园", "name":"000625.jpg"},
{"lat":22.6125811, "lng":114.1188231, "address":"蒙原烤羊腿", "name":"000626.jpg"},
{"lat":22.5836920, "lng":113.9663640, "address":"Seeed", "name":"000627.jpg"},
{"lat":22.7717619, "lng":113.8413933, "address":"松乔酒店", "name":"000628.jpg"},
{"lat":22.7283651, "lng":114.2161557, "address":"平安里学校", "name":"000629.jpg"},
{"lat":22.7293158, "lng":113.8248127, "address":"百佳华", "name":"000630.jpg"},
{"lat":22.5186641, "lng":113.9330571, "address":"百佳华", "name":"000631.jpg"},
{"lat":22.5466892, "lng":114.0640536, "address":"Tomyork", "name":"000632.jpg"},
{"lat":22.5507171, "lng":114.0868933, "address":"Tomyork", "name":"000633.jpg"},
{"lat":22.5486620, "lng":114.1146641, "address":"Lingerie", "name":"000634.jpg"},
{"lat":22.5485219, "lng":114.1145389, "address":"Lingerie", "name":"000635.jpg"},
{"lat":22.5478549, "lng":114.1141501, "address":"班尼路", "name":"000636.jpg"},
{"lat":22.5439651, "lng":113.9402074, "address":"Vanguard", "name":"000637.jpg"},
{"lat":22.5425744, "lng":113.9495737, "address":"Vayee", "name":"000638.jpg"},
{"lat":22.5655423, "lng":113.9514260, "address":"Balun", "name":"000639.jpg"},
{"lat":22.5654862, "lng":113.9503563, "address":"Baisha", "name":"000640.jpg"},
{"lat":22.5655703, "lng":113.9490969, "address":"Baisha", "name":"000641.jpg"},
{"lat":22.5385991, "lng":113.9446281, "address":"北京银行", "name":"000642.jpg"},
{"lat":22.5407674, "lng":113.9453143, "address":"Costa咖啡", "name":"000643.jpg"},
{"lat":22.5370578, "lng":113.9711694, "address":"Costa咖啡", "name":"000644.jpg"},
{"lat":22.5436136, "lng":113.9401323, "address":"面鼎香", "name":"000645.jpg"},
{"lat":22.6612130, "lng":114.0792010, "address":"面鼎香", "name":"000646.jpg"},
{"lat":22.5423423, "lng":113.9492160, "address":"上海银行", "name":"000647.jpg"},
{"lat":22.5424303, "lng":113.9492157, "address":"上海银行", "name":"000648.jpg"},
{"lat":22.5460296, "lng":114.0539504, "address":"深圳市工业展览馆", "name":"000649.jpg"},
{"lat":22.5440091, "lng":113.9478782, "address":"广东华兴银行", "name":"000650.jpg"},
{"lat":22.5455599, "lng":113.9478570, "address":"广东华兴银行", "name":"000651.jpg"},
{"lat":22.5415257, "lng":113.9466320, "address":"上海浦东发展银行", "name":"000652.jpg"},
{"lat":22.5446574, "lng":114.0781466, "address":"绿茶餐厅", "name":"000653.jpg"},
{"lat":22.5441501, "lng":114.0784350, "address":"赛百味", "name":"000654.jpg"},
{"lat":22.5410818, "lng":114.0209815, "address":"太兴餐厅", "name":"000655.jpg"},
{"lat":22.5365136, "lng":114.0188345, "address":"深潮记潮汕牛肉火锅", "name":"000656.jpg"},
{"lat":22.5344910, "lng":114.0179127, "address":"金谷一号海鲜酒楼", "name":"000657.jpg"},
{"lat":22.5341257, "lng":114.0187421, "address":"千寻味", "name":"000658.jpg"},
{"lat":22.4861992, "lng":113.9095663, "address":"交通银行", "name":"000659.jpg"},
{"lat":22.4869193, "lng":113.9118062, "address":"中国联通", "name":"000660.jpg"},
{"lat":22.5371750, "lng":114.0049122, "address":"深圳市交通运输局", "name":"000661.jpg"},
{"lat":22.5363436, "lng":114.0031871, "address":"深圳市交通运输局", "name":"000662.jpg"},
{"lat":22.4845592, "lng":113.9085642, "address":"新时代广场", "name":"000663.jpg"},
{"lat":22.5369344, "lng":114.0494191, "address":"Baia", "name":"000664.jpg"},
{"lat":22.4841011, "lng":113.9091327, "address":"Baia", "name":"000665.jpg"},
{"lat":22.4838712, "lng":113.9082426, "address":"新时代广场", "name":"000666.jpg"},
{"lat":22.4868305, "lng":113.9120515, "address":"Baskin-Robbins", "name":"000667.jpg"},
{"lat":22.4869858, "lng":113.9121846, "address":"Shanghai", "name":"000668.jpg"},
{"lat":22.4869491, "lng":113.9120935, "address":"Moulene", "name":"000669.jpg"},
{"lat":22.4854360, "lng":113.9119346, "address":"Moulene", "name":"000670.jpg"},
{"lat":22.4884651, "lng":113.9111725, "address":"IMAX", "name":"000671.jpg"},
{"lat":22.4867933, "lng":113.9119961, "address":"Cappadokia", "name":"000672.jpg"},
{"lat":22.4871016, "lng":113.9116762, "address":"Australian", "name":"000673.jpg"},
{"lat":22.4876402, "lng":113.9113235, "address":"Sport", "name":"000674.jpg"},
{"lat":22.4877059, "lng":113.9113908, "address":"SPA4", "name":"000675.jpg"},
{"lat":22.4878267, "lng":113.9115639, "address":"SPA4", "name":"000676.jpg"},
{"lat":22.5452184, "lng":114.1276860, "address":"Xinjiang", "name":"000677.jpg"},
{"lat":22.5483855, "lng":114.1299334, "address":"Xinjiang", "name":"000678.jpg"},
{"lat":22.6133012, "lng":113.8377995, "address":"西乡奋达科技", "name":"000679.jpg"},
{"lat":22.6189928, "lng":113.8568729, "address":"西乡奋达科技", "name":"000680.jpg"},
{"lat":22.6169912, "lng":113.8361485, "address":"华胜实验学校", "name":"000681.jpg"},
{"lat":22.5410788, "lng":114.0873734, "address":"爱华市场", "name":"000682.jpg"},
{"lat":22.5414558, "lng":114.0861609, "address":"爱华市场", "name":"000683.jpg"},
{"lat":22.5442918, "lng":114.0791366, "address":"赛百味", "name":"000684.jpg"},
{"lat":22.5469166, "lng":114.0790500, "address":"阿迪达斯", "name":"000685.jpg"},
{"lat":22.6045928, "lng":113.8417175, "address":"Bank", "name":"000686.jpg"},
{"lat":22.4867591, "lng":113.9100954, "address":"Irish", "name":"000687.jpg"},
{"lat":22.5537802, "lng":114.0605799, "address":"Irish", "name":"000688.jpg"},
{"lat":22.6088504, "lng":114.1254461, "address":"Dahe", "name":"000689.jpg"},
{"lat":22.5603347, "lng":114.0276042, "address":"钱大妈", "name":"000690.jpg"},
{"lat":22.6453558, "lng":114.0138149, "address":"逍遙鎮胡辣湯", "name":"000691.jpg"},
{"lat":22.5890470, "lng":114.0973351, "address":"清水河", "name":"000692.jpg"},
{"lat":22.5768387, "lng":114.2087640, "address":"雙鳳亭", "name":"000693.jpg"},
{"lat":22.5755104, "lng":114.2030292, "address":"蝴蝶谷", "name":"000694.jpg"},
{"lat":22.5708028, "lng":114.1903858, "address":"蝴蝶谷", "name":"000695.jpg"},
{"lat":22.5704461, "lng":114.1886789, "address":"倚天招风亭", "name":"000696.jpg"},
{"lat":22.6451549, "lng":114.1474698, "address":"横东岭", "name":"000697.jpg"},
{"lat":22.6653439, "lng":113.8158208, "address":"Jason", "name":"000698.jpg"},
{"lat":22.8138460, "lng":113.8527617, "address":"Angomould", "name":"000699.jpg"},
{"lat":22.6005489, "lng":114.0582561, "address":"Angomould", "name":"000700.jpg"},
{"lat":22.5415572, "lng":113.9621404, "address":"老汉口热干面", "name":"000701.jpg"},
{"lat":22.5433432, "lng":113.9650691, "address":"時代私人工作室", "name":"000702.jpg"},
{"lat":22.5422088, "lng":113.9882437, "address":"OCT", "name":"000703.jpg"},
{"lat":22.5438544, "lng":113.9213239, "address":"中国光大银行", "name":"000704.jpg"},
{"lat":22.5457088, "lng":113.9191711, "address":"前海渔港", "name":"000705.jpg"},
{"lat":22.5470492, "lng":113.9243440, "address":"7天连锁", "name":"000706.jpg"},
{"lat":22.5363131, "lng":113.9387275, "address":"华夏银行", "name":"000707.jpg"},
{"lat":22.5253578, "lng":113.9339779, "address":"原牛道", "name":"000708.jpg"},
{"lat":22.7446321, "lng":113.8037567, "address":"原牛道", "name":"000709.jpg"},
{"lat":22.6669543, "lng":114.0454418, "address":"德克士", "name":"000710.jpg"},
{"lat":22.6539345, "lng":114.0441043, "address":"Coffee", "name":"000711.jpg"},
{"lat":22.6535009, "lng":114.0438646, "address":"日本料理", "name":"000712.jpg"},
{"lat":22.6556046, "lng":114.0455775, "address":"平安銀行", "name":"000713.jpg"},
{"lat":22.6554944, "lng":114.0455171, "address":"宜百家超市", "name":"000714.jpg"},
{"lat":22.6646774, "lng":114.0438631, "address":"家家樂超市", "name":"000715.jpg"},
{"lat":22.6509674, "lng":114.0427263, "address":"家家樂超市", "name":"000716.jpg"},
{"lat":22.6689322, "lng":114.0441735, "address":"人员进出口", "name":"000717.jpg"},
{"lat":22.6622144, "lng":114.0472791, "address":"人员进出口", "name":"000718.jpg"},
{"lat":22.6514614, "lng":114.0412316, "address":"富士康科技集团", "name":"000719.jpg"},
{"lat":22.6616514, "lng":114.0457040, "address":"富士康科技集团", "name":"000720.jpg"},
{"lat":22.6564841, "lng":114.0455366, "address":"万马奔腾体验店", "name":"000721.jpg"},
{"lat":22.6516740, "lng":114.0468457, "address":"理髮店", "name":"000722.jpg"},
{"lat":22.6529465, "lng":114.0392200, "address":"鴻準花園", "name":"000723.jpg"},
{"lat":22.6518704, "lng":114.0470137, "address":"購物超市", "name":"000724.jpg"},
{"lat":22.6559575, "lng":114.0457267, "address":"購物超市", "name":"000725.jpg"},
{"lat":22.6603085, "lng":114.0453344, "address":"行人穿越道", "name":"000726.jpg"},
{"lat":22.5611448, "lng":113.8623174, "address":"本京国际酒店", "name":"000727.jpg"},
{"lat":22.5696391, "lng":113.9010951, "address":"本京国际酒店", "name":"000728.jpg"},
{"lat":22.5293717, "lng":113.9229836, "address":"兰兹酒店", "name":"000729.jpg"},
{"lat":22.5286739, "lng":113.9264785, "address":"兰兹酒店", "name":"000730.jpg"},
{"lat":22.5290386, "lng":113.9229079, "address":"百里臣", "name":"000731.jpg"},
{"lat":22.5749774, "lng":114.0547533, "address":"百里臣", "name":"000732.jpg"},
{"lat":22.5271130, "lng":113.9869440, "address":"Lady", "name":"000733.jpg"},
{"lat":22.5280397, "lng":113.9863969, "address":"Lady", "name":"000734.jpg"},
{"lat":22.5198822, "lng":113.9315204, "address":"樍木咖啡", "name":"000735.jpg"},
{"lat":22.5203404, "lng":113.9300607, "address":"樍木咖啡", "name":"000736.jpg"},
{"lat":22.5207393, "lng":113.9291723, "address":"第七天", "name":"000737.jpg"},
{"lat":22.5464137, "lng":114.0584493, "address":"光大证券深圳金田路营业部", "name":"000738.jpg"},
{"lat":22.6363089, "lng":114.0751722, "address":"光大证券深圳金田路营业部", "name":"000739.jpg"},
{"lat":22.5578119, "lng":114.0304346, "address":"福田外语学校东", "name":"000740.jpg"},
{"lat":22.5576910, "lng":114.0305906, "address":"福田外语学校东", "name":"000741.jpg"},
{"lat":22.7070934, "lng":114.2037599, "address":"深圳北理莫斯科大学", "name":"000742.jpg"},
{"lat":22.5613421, "lng":114.1147065, "address":"洪湖小学", "name":"000743.jpg"},
{"lat":22.5687643, "lng":114.1208753, "address":"田贝四路", "name":"000744.jpg"},
{"lat":22.5052744, "lng":113.9185155, "address":"博昇攀岩馆", "name":"000745.jpg"},
{"lat":22.6164787, "lng":114.1348274, "address":"毕咖所咖啡", "name":"000746.jpg"},
{"lat":22.6152476, "lng":114.1329873, "address":"新加坡妈妈烤包", "name":"000747.jpg"},
{"lat":22.6073336, "lng":114.0987683, "address":"文博宫", "name":"000748.jpg"},
{"lat":22.6049307, "lng":114.0918727, "address":"文谷庄園", "name":"000749.jpg"},
{"lat":22.5366353, "lng":114.0481426, "address":"文谷庄園", "name":"000750.jpg"},
{"lat":22.5741591, "lng":114.0551966, "address":"瑪莉葉洋菓子", "name":"000751.jpg"},
{"lat":22.5375422, "lng":114.1122058, "address":"瑪莉葉洋菓子", "name":"000752.jpg"},
{"lat":22.5458847, "lng":114.0528098, "address":"深圳市人民政府", "name":"000753.jpg"},
{"lat":22.5474124, "lng":114.0918329, "address":"中国共产党深圳市纪律检查委员会", "name":"000754.jpg"},
{"lat":22.5708909, "lng":113.8578136, "address":"中国共产党深圳市纪律检查委员会", "name":"000755.jpg"},
{"lat":22.5295920, "lng":113.9224857, "address":"西部电子", "name":"000756.jpg"},
{"lat":22.5297188, "lng":113.9205966, "address":"西部电子", "name":"000757.jpg"},
{"lat":22.5302072, "lng":113.9198025, "address":"苏宁易购", "name":"000758.jpg"},
{"lat":22.5305865, "lng":113.9201529, "address":"国美电器", "name":"000759.jpg"},
{"lat":22.5381996, "lng":114.0569251, "address":"深圳大中华喜来登酒店", "name":"000760.jpg"},
{"lat":22.5652258, "lng":113.8980498, "address":"Notting", "name":"000761.jpg"},
{"lat":22.5799873, "lng":113.9496810, "address":"Notting", "name":"000762.jpg"},
{"lat":22.5331055, "lng":114.0408637, "address":"Tom", "name":"000763.jpg"},
{"lat":22.4901521, "lng":113.8981627, "address":"Tom", "name":"000764.jpg"},
{"lat":22.5382596, "lng":114.0822932, "address":"点都德", "name":"000765.jpg"},
{"lat":22.5332572, "lng":114.0411104, "address":"Number", "name":"000766.jpg"},
{"lat":22.5711687, "lng":113.8516497, "address":"Number", "name":"000767.jpg"},
{"lat":22.6335610, "lng":113.8245272, "address":"深圳汉莎技术", "name":"000768.jpg"},
{"lat":22.5446811, "lng":114.1128873, "address":"深圳汉莎技术", "name":"000769.jpg"},
{"lat":22.5436184, "lng":114.1115634, "address":"深圳东洋宾馆", "name":"000770.jpg"},
{"lat":22.5436216, "lng":114.1119917, "address":"深圳东洋宾馆", "name":"000771.jpg"},
{"lat":22.5441738, "lng":114.1149839, "address":"罗湖小学", "name":"000772.jpg"},
{"lat":22.5406133, "lng":114.0873561, "address":"罗湖小学", "name":"000773.jpg"},
{"lat":22.5410941, "lng":113.9880328, "address":"深圳侨城旅友国际青年旅舍", "name":"000774.jpg"},
{"lat":22.5398276, "lng":113.9886968, "address":"OCT当代艺术中心", "name":"000775.jpg"},
{"lat":22.5402029, "lng":113.9871265, "address":"城市客栈", "name":"000776.jpg"},
{"lat":22.5391928, "lng":113.9879618, "address":"emoi基本生活", "name":"000777.jpg"},
{"lat":22.5395586, "lng":113.9883793, "address":"鹊尔斯酒窖", "name":"000778.jpg"},
{"lat":22.5397762, "lng":113.9884041, "address":"一渡堂", "name":"000779.jpg"},
{"lat":22.5402588, "lng":113.9884749, "address":"高文安·My-Coffee", "name":"000780.jpg"},
{"lat":22.5403597, "lng":113.9884663, "address":"高文安·My-Noodle", "name":"000781.jpg"},
{"lat":22.5405004, "lng":113.9884490, "address":"LSD觅食", "name":"000782.jpg"},
{"lat":22.5410102, "lng":113.9870261, "address":"香天下", "name":"000783.jpg"},
{"lat":22.5411722, "lng":113.9870663, "address":"诚兴生活超市", "name":"000784.jpg"},
{"lat":22.5408430, "lng":113.9884605, "address":"驴吧咖啡屋", "name":"000785.jpg"},
{"lat":22.5419687, "lng":113.9880178, "address":"A/T艺术餐厅", "name":"000786.jpg"},
{"lat":22.5425364, "lng":113.9879404, "address":"旧天堂书店", "name":"000787.jpg"},
{"lat":22.5427413, "lng":113.9878610, "address":"黑邮票爵士咖啡", "name":"000788.jpg"},
{"lat":22.5422922, "lng":113.9878994, "address":"央宗米线", "name":"000789.jpg"},
{"lat":22.5003364, "lng":113.9160844, "address":"蛇口人民医院", "name":"000790.jpg"},
{"lat":22.5024680, "lng":113.9165446, "address":"蛇口人民医院", "name":"000791.jpg"},
{"lat":22.4940432, "lng":113.9118458, "address":"蛇口网谷", "name":"000792.jpg"},
{"lat":22.4720161, "lng":113.9085847, "address":"蛇口邮轮中心", "name":"000793.jpg"},
{"lat":22.5080097, "lng":113.9228678, "address":"南门一坊", "name":"000794.jpg"},
{"lat":22.5076698, "lng":113.9225489, "address":"南门一坊", "name":"000795.jpg"},
{"lat":22.4931267, "lng":113.9165872, "address":"招商大厦", "name":"000796.jpg"},
{"lat":22.4930185, "lng":113.9172266, "address":"招商大厦", "name":"000797.jpg"},
{"lat":22.5630886, "lng":113.8601968, "address":"维也纳国际酒店", "name":"000798.jpg"},
{"lat":22.5572552, "lng":113.8666083, "address":"海韵学校", "name":"000799.jpg"},
{"lat":22.5566387, "lng":113.8690601, "address":"新安中学高中部北", "name":"000800.jpg"},
{"lat":22.5571736, "lng":113.8692573, "address":"新安中学高中部北", "name":"000801.jpg"},
{"lat":22.5553652, "lng":113.8689178, "address":"新安中学高中部", "name":"000802.jpg"},
{"lat":22.5542115, "lng":113.8696117, "address":"新安中学高中部", "name":"000803.jpg"},
{"lat":22.5615881, "lng":113.8743249, "address":"幸福海岸", "name":"000804.jpg"},
{"lat":22.5625263, "lng":113.8774599, "address":"宝安体育馆", "name":"000805.jpg"},
{"lat":22.5622904, "lng":113.8772172, "address":"宝安体育馆", "name":"000806.jpg"},
{"lat":22.5599771, "lng":113.8796808, "address":"宝安行政中心东", "name":"000807.jpg"},
{"lat":22.5520499, "lng":113.8734182, "address":"荣超滨海大厦", "name":"000808.jpg"},
{"lat":22.5586266, "lng":113.8652142, "address":"假日名居", "name":"000809.jpg"},
{"lat":22.5587925, "lng":113.8654241, "address":"假日名居", "name":"000810.jpg"},
{"lat":22.5590921, "lng":113.8622174, "address":"海语西湾", "name":"000811.jpg"},
{"lat":22.5587827, "lng":113.8628205, "address":"海语西湾", "name":"000812.jpg"},
{"lat":22.6019943, "lng":113.9982445, "address":"专家公寓", "name":"000813.jpg"},
{"lat":22.5280602, "lng":113.9304078, "address":"专家公寓", "name":"000814.jpg"},
{"lat":22.5279546, "lng":113.9325070, "address":"软件产业基地", "name":"000815.jpg"},
{"lat":22.5206336, "lng":113.9491243, "address":"第26届世界大学生夏季运动会主火炬塔", "name":"000816.jpg"},
{"lat":22.5201769, "lng":113.9488081, "address":"火炬塔广场", "name":"000817.jpg"},
{"lat":22.5298134, "lng":113.9216098, "address":"真功夫", "name":"000818.jpg"},
{"lat":22.5642821, "lng":113.8770375, "address":"味千拉面", "name":"000819.jpg"},
{"lat":22.6378953, "lng":114.0079098, "address":"简上中路", "name":"000820.jpg"},
{"lat":22.5450605, "lng":113.9486192, "address":"新东方深圳学校大冲国际留学中心", "name":"000821.jpg"},
{"lat":22.6993117, "lng":114.2110194, "address":"新东方深圳学校大冲国际留学中心", "name":"000822.jpg"},
{"lat":22.5939729, "lng":113.9794306, "address":"深圳大学城", "name":"000823.jpg"},
{"lat":22.5475918, "lng":114.1155085, "address":"Oppo", "name":"000824.jpg"},
{"lat":22.5515755, "lng":114.1152161, "address":"colors", "name":"000825.jpg"},
{"lat":22.5430563, "lng":114.1155085, "address":"tatuajes", "name":"000826.jpg"},
{"lat":22.5428666, "lng":113.9491027, "address":"tatuajes", "name":"000827.jpg"},
{"lat":22.5275355, "lng":113.9191718, "address":"中国民生银行", "name":"000828.jpg"},
{"lat":22.5409967, "lng":113.9495916, "address":"哈尔滨工业大学深圳研究院", "name":"000829.jpg"},
{"lat":22.5392898, "lng":113.9502286, "address":"哈尔滨工业大学深圳研究院", "name":"000830.jpg"},
{"lat":22.5328283, "lng":113.9491145, "address":"微众银行", "name":"000831.jpg"},
{"lat":22.5582357, "lng":113.8754922, "address":"微众银行", "name":"000832.jpg"},
{"lat":22.7027178, "lng":114.0420827, "address":"观澜工商联", "name":"000833.jpg"},
{"lat":22.5395317, "lng":114.0257655, "address":"深南香蜜立交", "name":"000834.jpg"},
{"lat":22.6331025, "lng":113.9337639, "address":"南山圖書館百旺信分館", "name":"000835.jpg"},
{"lat":22.5498217, "lng":113.9943434, "address":"南山圖書館百旺信分館", "name":"000836.jpg"},
{"lat":22.5457119, "lng":114.0788973, "address":"无邪日式甜品", "name":"000837.jpg"},
{"lat":22.5208080, "lng":113.9343238, "address":"潮流广场", "name":"000838.jpg"},
{"lat":22.5207217, "lng":113.9341199, "address":"无邪日式甜品", "name":"000839.jpg"},
{"lat":22.5213434, "lng":113.9334185, "address":"初代甜品宇治抹茶", "name":"000840.jpg"},
{"lat":22.5464996, "lng":114.1111896, "address":"初代甜品宇治抹茶", "name":"000841.jpg"},
{"lat":22.5452579, "lng":114.1029198, "address":"脆脆炸猪扒", "name":"000842.jpg"},
{"lat":22.5485880, "lng":114.1279333, "address":"冶金大厦", "name":"000843.jpg"},
{"lat":22.5454242, "lng":114.1171776, "address":"金城大厦", "name":"000844.jpg"},
{"lat":22.5408408, "lng":114.1134664, "address":"深圳发展中心大厦", "name":"000845.jpg"},
{"lat":22.5476994, "lng":114.1237642, "address":"京鹏大厦", "name":"000846.jpg"},
{"lat":22.5427214, "lng":114.1146873, "address":"金光华广场", "name":"000847.jpg"},
{"lat":22.6017719, "lng":114.3036000, "address":"Skechers", "name":"000848.jpg"},
{"lat":22.5409851, "lng":114.0315475, "address":"Skechers", "name":"000849.jpg"},
{"lat":22.5461654, "lng":114.1064059, "address":"美豪酒店", "name":"000850.jpg"},
{"lat":22.5465371, "lng":114.1014996, "address":"外婆家", "name":"000851.jpg"},
{"lat":22.5657654, "lng":114.1653672, "address":"莲塘小学", "name":"000852.jpg"},
{"lat":22.5556108, "lng":114.2287260, "address":"盐田产业服务中心", "name":"000853.jpg"},
{"lat":22.5555398, "lng":114.2281135, "address":"盐田产业服务中心", "name":"000854.jpg"},
{"lat":22.5538182, "lng":114.2300139, "address":"诗宁大厦", "name":"000855.jpg"},
{"lat":22.5537611, "lng":114.2301474, "address":"诗宁大厦", "name":"000856.jpg"},
{"lat":22.5542959, "lng":114.2312649, "address":"盐田妇幼保健院", "name":"000857.jpg"},
{"lat":22.5543914, "lng":114.2310553, "address":"盐田妇幼保健院", "name":"000858.jpg"},
{"lat":22.5452217, "lng":114.1230870, "address":"文锦中学", "name":"000859.jpg"},
{"lat":22.5433505, "lng":114.1171854, "address":"阳光酒店", "name":"000860.jpg"},
{"lat":22.5424557, "lng":114.1144697, "address":"金光华广场", "name":"000861.jpg"},
{"lat":22.5581931, "lng":114.1804863, "address":"长岭沟", "name":"000862.jpg"},
{"lat":22.5441693, "lng":114.1215361, "address":"春风万家", "name":"000863.jpg"},
{"lat":22.5422910, "lng":114.1195021, "address":"丽都酒店", "name":"000864.jpg"},
{"lat":22.5474470, "lng":114.1240941, "address":"京鹏大厦", "name":"000865.jpg"},
{"lat":22.5481485, "lng":114.1283577, "address":"冶金大厦", "name":"000866.jpg"},
{"lat":22.5469306, "lng":114.1257174, "address":"文锦南路", "name":"000867.jpg"},
{"lat":22.5545049, "lng":114.2306858, "address":"兰州拉面", "name":"000868.jpg"},
{"lat":22.5487634, "lng":114.2277868, "address":"中英街", "name":"000869.jpg"},
{"lat":22.5588049, "lng":114.2219543, "address":"元墩街口", "name":"000870.jpg"},
{"lat":22.5576233, "lng":114.2363097, "address":"盐田税务局", "name":"000871.jpg"},
{"lat":22.5576880, "lng":114.2366771, "address":"盐田税务局", "name":"000872.jpg"},
{"lat":22.5606782, "lng":114.2401138, "address":"盐田精茂城", "name":"000873.jpg"},
{"lat":22.5603707, "lng":114.2400428, "address":"盐田精茂城", "name":"000874.jpg"},
{"lat":22.5379648, "lng":113.9008382, "address":"龙海商业广场", "name":"000875.jpg"},
{"lat":22.5637669, "lng":114.2354303, "address":"蓝色海月居", "name":"000876.jpg"},
{"lat":22.5639693, "lng":114.2350254, "address":"蓝色海月居", "name":"000877.jpg"},
{"lat":22.5492485, "lng":114.0179694, "address":"清黄开邦、邓氏合葬墓", "name":"000878.jpg"},
{"lat":22.5496188, "lng":114.0171698, "address":"清黄开邦、邓氏合葬墓", "name":"000879.jpg"},
{"lat":22.5350157, "lng":114.0593257, "address":"娃娃集", "name":"000880.jpg"},
{"lat":22.6536313, "lng":114.0605089, "address":"娃娃集", "name":"000881.jpg"},
{"lat":22.5514573, "lng":113.8965834, "address":"宝安实验学校", "name":"000882.jpg"},
{"lat":22.4817326, "lng":113.9075158, "address":"时间广场", "name":"000883.jpg"},
{"lat":22.4717901, "lng":113.9073144, "address":"时间广场", "name":"000884.jpg"},
{"lat":22.4864306, "lng":113.9120028, "address":"鸿隆明华轮酒店", "name":"000885.jpg"},
{"lat":22.4867623, "lng":113.9123538, "address":"鸿隆明华轮酒店", "name":"000886.jpg"},
{"lat":22.4840439, "lng":113.9126216, "address":"女娲补天像", "name":"000887.jpg"},
{"lat":22.4858624, "lng":113.9115735, "address":"夏尔乐酒廊", "name":"000888.jpg"},
{"lat":22.4870144, "lng":113.9106968, "address":"海上世界中心广场", "name":"000889.jpg"},
{"lat":22.4832860, "lng":113.9168341, "address":"海上世界中心广场", "name":"000890.jpg"},
{"lat":22.5519420, "lng":113.8745449, "address":"观海海鲜酒楼", "name":"000891.jpg"},
{"lat":22.5284331, "lng":113.9900082, "address":"观海海鲜酒楼", "name":"000892.jpg"},
{"lat":22.5545237, "lng":113.8817417, "address":"壹方中心", "name":"000893.jpg"},
{"lat":22.5563102, "lng":113.8816165, "address":"壹方中心", "name":"000894.jpg"},
{"lat":22.5394307, "lng":114.0175379, "address":"招商银行总部", "name":"000895.jpg"},
{"lat":22.5476182, "lng":114.0096247, "address":"招商银行总部", "name":"000896.jpg"},
{"lat":22.5370806, "lng":114.0142412, "address":"深航国际酒店", "name":"000897.jpg"},
{"lat":22.5299112, "lng":113.9384877, "address":"草原羊面馆", "name":"000898.jpg"},
{"lat":22.5342981, "lng":114.0063546, "address":"草原羊面馆", "name":"000899.jpg"},
{"lat":22.7377327, "lng":113.8369795, "address":"阳光咖啡西餐厅", "name":"000900.jpg"},
{"lat":22.5332180, "lng":113.9321639, "address":"杜鹃山快递中心", "name":"000901.jpg"},
{"lat":22.5468860, "lng":114.0795076, "address":"振华路", "name":"000902.jpg"},
{"lat":22.5203559, "lng":113.9317439, "address":"Zara", "name":"000903.jpg"},
{"lat":22.5282138, "lng":113.9372744, "address":"百度国际大厦", "name":"000904.jpg"},
{"lat":22.5268607, "lng":113.9360057, "address":"关中源", "name":"000905.jpg"},
{"lat":22.5375219, "lng":114.0980593, "address":"迷影荟", "name":"000906.jpg"},
{"lat":22.6991133, "lng":114.1032419, "address":"迷影荟", "name":"000907.jpg"},
{"lat":22.5277047, "lng":113.9875356, "address":"蓝汐精品酒店", "name":"000908.jpg"},
{"lat":22.5248581, "lng":113.9869788, "address":"大疆创新", "name":"000909.jpg"},
{"lat":22.5398506, "lng":113.9710569, "address":"Apple", "name":"000910.jpg"},
{"lat":22.5434770, "lng":113.9911762, "address":"Apple", "name":"000911.jpg"},
{"lat":22.6882063, "lng":114.2245114, "address":"创业咖啡(邓洋康测试文本)", "name":"000912.jpg"},
{"lat":22.5599049, "lng":113.8638634, "address":"创业咖啡(邓洋康测试文本)", "name":"000913.jpg"},
{"lat":22.4895313, "lng":113.9113126, "address":"招商局自貿商城", "name":"000914.jpg"},
{"lat":22.5204892, "lng":113.8939789, "address":"港交所前海联合交易中心", "name":"000915.jpg"},
{"lat":22.5391762, "lng":113.9631368, "address":"八号连锁酒店", "name":"000916.jpg"},
{"lat":22.5383647, "lng":113.9612617, "address":"石洲北路", "name":"000917.jpg"},
{"lat":22.5414210, "lng":113.9618863, "address":"南山中英文学校", "name":"000918.jpg"},
{"lat":22.5410068, "lng":113.9621131, "address":"南山中英文学校", "name":"000919.jpg"},
{"lat":22.5432436, "lng":113.9619865, "address":"海豚塑像", "name":"000920.jpg"},
{"lat":22.5344080, "lng":113.9635691, "address":"海豚塑像", "name":"000921.jpg"},
{"lat":22.5383777, "lng":113.9638392, "address":"救世基督像", "name":"000922.jpg"},
{"lat":22.5383666, "lng":113.9632632, "address":"救世基督像", "name":"000923.jpg"},
{"lat":22.5386279, "lng":113.9608970, "address":"户政办公室", "name":"000924.jpg"},
{"lat":22.5386418, "lng":113.9606292, "address":"公安值班室", "name":"000925.jpg"},
{"lat":22.5252907, "lng":114.0469739, "address":"小白鸽少儿舞蹈", "name":"000926.jpg"},
{"lat":22.5337222, "lng":113.9633212, "address":"沙河天虹商场", "name":"000927.jpg"},
{"lat":22.5286458, "lng":113.9624449, "address":"沙河天虹商场", "name":"000928.jpg"},
{"lat":22.6496931, "lng":113.8934508, "address":"深圳市气象观测梯度塔", "name":"000929.jpg"},
{"lat":22.7254480, "lng":114.0734507, "address":"深圳市气象观测梯度塔", "name":"000930.jpg"},
{"lat":22.7258105, "lng":114.0743900, "address":"户政办公室", "name":"000931.jpg"},
{"lat":22.6351129, "lng":114.2147867, "address":"乐迎风", "name":"000932.jpg"},
{"lat":22.6120967, "lng":114.0238955, "address":"深圳北", "name":"000933.jpg"},
{"lat":22.6141215, "lng":114.0264497, "address":"发展的深圳", "name":"000934.jpg"},
{"lat":22.5188280, "lng":113.9014279, "address":"发展的深圳", "name":"000935.jpg"},
{"lat":22.5302186, "lng":113.9482988, "address":"阳光带海滨城北", "name":"000936.jpg"},
{"lat":22.5333891, "lng":113.9452965, "address":"科技南路", "name":"000937.jpg"},
{"lat":22.5372227, "lng":113.9451405, "address":"高新公寓", "name":"000938.jpg"},
{"lat":22.6013250, "lng":114.2991278, "address":"盐田体育中心", "name":"000939.jpg"},
{"lat":22.5836216, "lng":114.2436264, "address":"深圳外国语学校", "name":"000940.jpg"},
{"lat":22.5837469, "lng":114.2439407, "address":"深圳外国语学校", "name":"000941.jpg"},
{"lat":22.5814219, "lng":114.2656473, "address":"盐田国际大厦", "name":"000942.jpg"},
{"lat":22.5945101, "lng":114.2996724, "address":"海滨浴场", "name":"000943.jpg"},
{"lat":22.5948548, "lng":114.2997609, "address":"海滨浴场", "name":"000944.jpg"},
{"lat":22.5980547, "lng":114.2975425, "address":"中兴通讯学院", "name":"000945.jpg"},
{"lat":22.5978754, "lng":114.2978525, "address":"中兴通讯学院", "name":"000946.jpg"},
{"lat":22.6045051, "lng":114.2959508, "address":"东海岸三期", "name":"000947.jpg"},
{"lat":22.6042479, "lng":114.2958017, "address":"东海岸三期", "name":"000948.jpg"},
{"lat":22.6056299, "lng":114.2982036, "address":"东部华侨城西门", "name":"000949.jpg"},
{"lat":22.6055424, "lng":114.2978817, "address":"东部华侨城西门", "name":"000950.jpg"},
{"lat":22.6019314, "lng":114.2993708, "address":"盐田体育中心", "name":"000951.jpg"},
{"lat":22.6031920, "lng":114.3037473, "address":"东部华侨城", "name":"000952.jpg"},
{"lat":22.6028625, "lng":114.3037876, "address":"东部华侨城", "name":"000953.jpg"},
{"lat":22.6051279, "lng":114.3283520, "address":"海关小梅沙基地", "name":"000954.jpg"},
{"lat":22.6050701, "lng":114.3285205, "address":"海关小梅沙基地", "name":"000955.jpg"},
{"lat":22.5666709, "lng":114.2434898, "address":"周大福大厦", "name":"000956.jpg"},
{"lat":22.5534373, "lng":114.2222582, "address":"周大福大厦", "name":"000957.jpg"},
{"lat":22.5644978, "lng":114.2463047, "address":"盐田海事局", "name":"000958.jpg"},
{"lat":22.5537543, "lng":114.2286981, "address":"田东中学", "name":"000959.jpg"},
{"lat":22.5538053, "lng":114.2291382, "address":"田东中学", "name":"000960.jpg"},
{"lat":22.5585900, "lng":114.2349635, "address":"壹海城", "name":"000961.jpg"},
{"lat":22.5581905, "lng":114.2349643, "address":"壹海城", "name":"000962.jpg"},
{"lat":22.5584201, "lng":114.2314169, "address":"香径南街", "name":"000963.jpg"},
{"lat":22.5908759, "lng":114.2394626, "address":"香径南街", "name":"000964.jpg"},
{"lat":22.5277396, "lng":113.9328919, "address":"西北牛肉麵大王", "name":"000965.jpg"},
{"lat":22.4883784, "lng":114.5190124, "address":"西洋尾", "name":"000966.jpg"},
{"lat":22.5445419, "lng":113.9234346, "address":"正风篮球场", "name":"000967.jpg"},
{"lat":22.5591449, "lng":113.9204977, "address":"正风篮球场", "name":"000968.jpg"},
{"lat":22.5486445, "lng":114.1312089, "address":"黄贝岭", "name":"000969.jpg"},
{"lat":22.5436866, "lng":114.1207397, "address":"皇室假期美食水疗会", "name":"000970.jpg"},
{"lat":22.5430956, "lng":114.1161061, "address":"交通银行（金叶支行）", "name":"000971.jpg"},
{"lat":22.6121783, "lng":113.8376226, "address":"交通银行（金叶支行）", "name":"000972.jpg"},
{"lat":22.4963092, "lng":113.9204152, "address":"SteamHead", "name":"000973.jpg"},
{"lat":22.4965149, "lng":113.9209677, "address":"Parkside", "name":"000974.jpg"},
{"lat":22.4969411, "lng":113.9184813, "address":"Stationary", "name":"000975.jpg"},
{"lat":22.4979621, "lng":113.9174487, "address":"Shekou", "name":"000976.jpg"},
{"lat":22.4996645, "lng":113.9148201, "address":"Teddy's", "name":"000977.jpg"},
{"lat":22.4947528, "lng":113.9220977, "address":"Ming's", "name":"000978.jpg"},
{"lat":22.4891736, "lng":113.9218647, "address":"All", "name":"000979.jpg"},
{"lat":22.4892024, "lng":113.9217668, "address":"Lumber", "name":"000980.jpg"},
{"lat":22.5811109, "lng":113.8772661, "address":"海程酒店", "name":"000981.jpg"},
{"lat":22.5350237, "lng":113.9634993, "address":"红坊烧烤", "name":"000982.jpg"},
{"lat":22.5672724, "lng":113.8719583, "address":"红坊烧烤", "name":"000983.jpg"},
{"lat":22.4900204, "lng":113.9409334, "address":"运动广场", "name":"000984.jpg"},
{"lat":22.4900355, "lng":113.9400837, "address":"运动广场", "name":"000985.jpg"},
{"lat":22.4888385, "lng":113.9222592, "address":"85度C", "name":"000986.jpg"},
{"lat":22.5686315, "lng":113.9507153, "address":"85度C", "name":"000987.jpg"},
{"lat":22.5317185, "lng":113.9656643, "address":"深湾二路", "name":"000988.jpg"},
{"lat":22.5283311, "lng":113.9714652, "address":"瑞河耶纳南门", "name":"000989.jpg"},
{"lat":22.5290148, "lng":113.9759620, "address":"白石路中", "name":"000990.jpg"},
{"lat":22.5294119, "lng":113.9832884, "address":"华侨城湿地", "name":"000991.jpg"},
{"lat":22.5305967, "lng":113.9898417, "address":"港大医院", "name":"000992.jpg"},
{"lat":22.5361110, "lng":113.9857749, "address":"锦绣中华", "name":"000993.jpg"},
{"lat":22.5361394, "lng":113.9832315, "address":"锦绣中华", "name":"000994.jpg"},
{"lat":22.5457969, "lng":114.0795081, "address":"Starbucks", "name":"000995.jpg"},
{"lat":22.6074770, "lng":113.8266628, "address":"Starbucks", "name":"000996.jpg"},
{"lat":22.5597074, "lng":114.1384956, "address":"医务室", "name":"000997.jpg"},
{"lat":22.5601674, "lng":114.1378223, "address":"自行车停车场", "name":"000998.jpg"},
{"lat":22.5597510, "lng":114.1379615, "address":"乒乓球台", "name":"000999.jpg"},
{"lat":22.5435895, "lng":114.0784741, "address":"阿迪达斯", "name":"001000.jpg"},
{"lat":22.6905575, "lng":113.7971204, "address":"维也纳酒店", "name":"001001.jpg"},
{"lat":22.5385223, "lng":114.1132166, "address":"印度餐厅", "name":"001002.jpg"},
{"lat":22.5020492, "lng":113.9467936, "address":"印度餐厅", "name":"001003.jpg"},
{"lat":22.5601474, "lng":114.1379010, "address":"小卖部", "name":"001004.jpg"},
{"lat":22.5591894, "lng":114.1378132, "address":"生命广场", "name":"001005.jpg"},
{"lat":22.5588822, "lng":114.1375504, "address":"黄河瀑布", "name":"001006.jpg"},
{"lat":22.5590319, "lng":114.1379860, "address":"水分子模型", "name":"001007.jpg"},
{"lat":22.5589871, "lng":114.1383297, "address":"主席台", "name":"001008.jpg"},
{"lat":22.5595123, "lng":114.1382536, "address":"报告厅", "name":"001009.jpg"},
{"lat":22.5555250, "lng":113.8788179, "address":"报告厅", "name":"001010.jpg"},
{"lat":22.5684218, "lng":113.8520422, "address":"富通城三期", "name":"001011.jpg"},
{"lat":22.5684727, "lng":113.8513515, "address":"富通城三期", "name":"001012.jpg"},
{"lat":22.5720217, "lng":113.8555155, "address":"富通城二期", "name":"001013.jpg"},
{"lat":22.5714589, "lng":113.8542663, "address":"富通城二期", "name":"001014.jpg"},
{"lat":22.5753326, "lng":113.8587762, "address":"圣淘沙", "name":"001015.jpg"},
{"lat":22.5594380, "lng":113.8847295, "address":"丽晶国际", "name":"001016.jpg"},
{"lat":22.5607806, "lng":113.8856873, "address":"丽晶国际", "name":"001017.jpg"},
{"lat":22.5606676, "lng":113.8871919, "address":"西城上筑", "name":"001018.jpg"},
{"lat":22.5623320, "lng":113.8862708, "address":"西城上筑", "name":"001019.jpg"},
{"lat":22.5283390, "lng":113.9099646, "address":"南山残联", "name":"001020.jpg"},
{"lat":22.5283275, "lng":113.9103145, "address":"南山残联", "name":"001021.jpg"},
{"lat":22.5228880, "lng":113.9087894, "address":"鼎太风华", "name":"001022.jpg"},
{"lat":22.5229592, "lng":113.9092269, "address":"鼎太风华", "name":"001023.jpg"},
{"lat":22.5157679, "lng":113.9054261, "address":"南山党校", "name":"001024.jpg"},
{"lat":22.5153686, "lng":113.9055573, "address":"南山党校", "name":"001025.jpg"},
{"lat":22.5148513, "lng":113.9093156, "address":"城市山林西", "name":"001026.jpg"},
{"lat":22.5151965, "lng":113.9096376, "address":"城市山林西", "name":"001027.jpg"},
{"lat":22.5141846, "lng":113.9117036, "address":"城市山林东", "name":"001028.jpg"},
{"lat":22.5139337, "lng":113.9122671, "address":"城市山林东", "name":"001029.jpg"},
{"lat":22.5092070, "lng":113.9168152, "address":"荔秀文化街", "name":"001030.jpg"},
{"lat":22.5096888, "lng":113.9166525, "address":"荔秀文化街", "name":"001031.jpg"},
{"lat":22.5755998, "lng":113.8582459, "address":"圣淘沙", "name":"001032.jpg"},
{"lat":22.5692037, "lng":113.8689526, "address":"径贝居委会", "name":"001033.jpg"},
{"lat":22.5674512, "lng":113.8700186, "address":"福中福", "name":"001034.jpg"},
{"lat":22.5668871, "lng":113.8702913, "address":"福中福", "name":"001035.jpg"},
{"lat":22.5618187, "lng":113.8712165, "address":"深业新岸线", "name":"001036.jpg"},
{"lat":22.5611977, "lng":113.8722575, "address":"深业新岸线", "name":"001037.jpg"},
{"lat":22.5693880, "lng":113.8690999, "address":"径贝居委会", "name":"001038.jpg"},
{"lat":22.5565967, "lng":114.0388420, "address":"招商銀行", "name":"001039.jpg"},
{"lat":22.5588799, "lng":113.8763747, "address":"招商銀行", "name":"001040.jpg"},
{"lat":22.5461893, "lng":114.0840278, "address":"Longsheng", "name":"001041.jpg"},
{"lat":22.5596515, "lng":114.1381696, "address":"惜时亭", "name":"001042.jpg"},
{"lat":22.5324734, "lng":113.9331840, "address":"惜时亭", "name":"001043.jpg"},
{"lat":22.6157960, "lng":113.8569184, "address":"Taoyuanju", "name":"001044.jpg"},
{"lat":22.5383535, "lng":113.9617315, "address":"Taoyuanju", "name":"001045.jpg"},
{"lat":22.5510763, "lng":114.0834044, "address":"招商銀行（振華支行）", "name":"001046.jpg"},
{"lat":22.5470958, "lng":114.0815995, "address":"招商銀行（振華支行）", "name":"001047.jpg"},
{"lat":22.5478723, "lng":114.2269714, "address":"中英街", "name":"001048.jpg"},
{"lat":22.5362373, "lng":114.0624492, "address":"深圳温德姆至尊酒店", "name":"001049.jpg"},
{"lat":22.5402033, "lng":113.9479998, "address":"面點王", "name":"001050.jpg"},
{"lat":22.5238779, "lng":113.9443526, "address":"深圳湾体育中心", "name":"001051.jpg"},
{"lat":22.5248389, "lng":113.9441239, "address":"深圳湾体育中心", "name":"001052.jpg"},
{"lat":22.5259926, "lng":114.0573349, "address":"福田保健院", "name":"001053.jpg"},
{"lat":22.5564838, "lng":113.8814473, "address":"福田保健院", "name":"001054.jpg"},
{"lat":22.5356953, "lng":113.9328924, "address":"自助水果店", "name":"001055.jpg"},
{"lat":22.5936881, "lng":114.4472708, "address":"自助水果店", "name":"001056.jpg"},
{"lat":22.5116096, "lng":114.6213763, "address":"鞋柴角", "name":"001057.jpg"},
{"lat":22.5154906, "lng":114.4972158, "address":"半天云", "name":"001058.jpg"},
{"lat":22.6711031, "lng":114.4772177, "address":"大笔架山", "name":"001059.jpg"},
{"lat":22.5656989, "lng":114.1642311, "address":"吉野家", "name":"001060.jpg"},
{"lat":22.5961378, "lng":114.1858438, "address":"梧桐山综合大楼", "name":"001061.jpg"},
{"lat":22.5959644, "lng":114.1856989, "address":"梧桐山综合大楼", "name":"001062.jpg"},
{"lat":22.5381579, "lng":114.0255960, "address":"六千馆", "name":"001063.jpg"},
{"lat":22.5206806, "lng":113.8992700, "address":"六千馆", "name":"001064.jpg"},
{"lat":22.5285750, "lng":113.9278835, "address":"二天堂药店", "name":"001065.jpg"},
{"lat":22.5132290, "lng":113.9318872, "address":"龙成生活超市", "name":"001066.jpg"},
{"lat":22.7291966, "lng":114.3857178, "address":"坪山樱花谷", "name":"001067.jpg"},
{"lat":22.5431001, "lng":114.1054509, "address":"鮮芋仙", "name":"001068.jpg"},
{"lat":22.5452618, "lng":114.0566853, "address":"胡椒宅男", "name":"001069.jpg"},
{"lat":22.5403724, "lng":114.0964254, "address":"八合里", "name":"001070.jpg"},
{"lat":22.4649600, "lng":114.6177055, "address":"妈湾码头", "name":"001071.jpg"},
{"lat":22.5658080, "lng":113.8804482, "address":"宝安网球场", "name":"001072.jpg"},
{"lat":22.5003567, "lng":113.8850506, "address":"宝安网球场", "name":"001073.jpg"},
{"lat":22.5350605, "lng":114.4775444, "address":"火烧排", "name":"001074.jpg"},
{"lat":22.5247637, "lng":114.5909222, "address":"避雨屋", "name":"001075.jpg"},
{"lat":22.5207130, "lng":114.5838142, "address":"大雁顶", "name":"001076.jpg"},
{"lat":22.5634366, "lng":113.8715860, "address":"大雁顶", "name":"001077.jpg"},
{"lat":22.5688167, "lng":113.8927220, "address":"鹏峰奥迪", "name":"001078.jpg"},
{"lat":22.5700660, "lng":113.8917267, "address":"鹏峰奥迪", "name":"001079.jpg"},
{"lat":22.5119535, "lng":113.9130107, "address":"汇滨广场", "name":"001080.jpg"},
{"lat":22.5112700, "lng":113.9121936, "address":"中熙君南山", "name":"001081.jpg"},
{"lat":22.5135775, "lng":113.9156571, "address":"中熙君南山", "name":"001082.jpg"},
{"lat":22.5343382, "lng":114.0044360, "address":"深圳市人力资源和社会保障局", "name":"001083.jpg"},
{"lat":22.5330064, "lng":114.0035035, "address":"深圳市人力资源和社会保障局", "name":"001084.jpg"},
{"lat":22.5348984, "lng":114.0050761, "address":"深圳市考试院", "name":"001085.jpg"},
{"lat":22.5830178, "lng":113.8566979, "address":"唯愛婚嫁館", "name":"001086.jpg"},
{"lat":22.5858672, "lng":113.8731128, "address":"建設銀行", "name":"001087.jpg"},
{"lat":22.5494392, "lng":114.0710396, "address":"建設銀行", "name":"001088.jpg"},
{"lat":22.5421275, "lng":114.0912197, "address":"科学馆", "name":"001089.jpg"},
{"lat":22.5482898, "lng":114.0176464, "address":"玫瑰园", "name":"001090.jpg"},
{"lat":22.6237222, "lng":114.1219068, "address":"布吉慢城总站", "name":"001091.jpg"},
{"lat":22.4896630, "lng":114.5780527, "address":"东涌码头", "name":"001092.jpg"},
{"lat":22.4682621, "lng":114.6384342, "address":"东涌码头", "name":"001093.jpg"},
{"lat":22.5672861, "lng":114.4651210, "address":"油草棚", "name":"001094.jpg"},
{"lat":22.5523337, "lng":114.1058967, "address":"Holiday", "name":"001095.jpg"},
{"lat":22.5445879, "lng":114.0216225, "address":"Holiday", "name":"001096.jpg"},
{"lat":22.5442900, "lng":114.0312465, "address":"香蜜轩", "name":"001097.jpg"},
{"lat":22.5442392, "lng":114.0308804, "address":"顺德佬", "name":"001098.jpg"},
{"lat":22.5439519, "lng":114.0306665, "address":"好世界国宴", "name":"001099.jpg"},
{"lat":22.5436736, "lng":114.0310456, "address":"印象·草原", "name":"001100.jpg"},
{"lat":22.5441973, "lng":114.0319528, "address":"小龙坎火锅", "name":"001101.jpg"},
{"lat":22.5445594, "lng":114.0318330, "address":"老北京涮羊肉", "name":"001102.jpg"},
{"lat":22.5446252, "lng":114.0316288, "address":"松哥油闷大虾", "name":"001103.jpg"},
{"lat":22.6526265, "lng":114.0368796, "address":"松哥油闷大虾", "name":"001104.jpg"},
{"lat":22.5970654, "lng":114.3053117, "address":"幸福·生存", "name":"001105.jpg"},
{"lat":22.5965652, "lng":114.3051240, "address":"幸福·生存", "name":"001106.jpg"},
{"lat":22.6199482, "lng":114.2903375, "address":"云中漫步", "name":"001107.jpg"},
{"lat":22.6170271, "lng":114.2976361, "address":"云中漫步", "name":"001108.jpg"},
{"lat":22.6186496, "lng":114.2894317, "address":"自然之眼", "name":"001109.jpg"},
{"lat":22.4914082, "lng":114.4861142, "address":"鹅公湾", "name":"001110.jpg"},
{"lat":22.4832321, "lng":114.4851501, "address":"柚柑湾", "name":"001111.jpg"},
{"lat":22.5987169, "lng":114.3083058, "address":"柚柑湾", "name":"001112.jpg"},
{"lat":22.5228451, "lng":113.9303818, "address":"E.T.Brewery", "name":"001113.jpg"},
{"lat":22.5691418, "lng":114.5003713, "address":"龙歧湾", "name":"001114.jpg"},
{"lat":22.5401654, "lng":113.9784612, "address":"生态广场", "name":"001115.jpg"},
{"lat":22.5410660, "lng":113.9770089, "address":"魔幻城堡", "name":"001116.jpg"},
{"lat":22.5015010, "lng":114.5320230, "address":"铁扇关门", "name":"001117.jpg"},
{"lat":22.5799027, "lng":113.8800576, "address":"瑞廷精品酒店", "name":"001118.jpg"},
{"lat":22.5404823, "lng":114.1181431, "address":"蓉記香辣蟹", "name":"001119.jpg"},
{"lat":22.5172141, "lng":113.9238447, "address":"中国联通", "name":"001120.jpg"},
{"lat":22.5483022, "lng":114.1114178, "address":"木屋燒烤", "name":"001121.jpg"},
{"lat":22.5381724, "lng":114.0219259, "address":"白玉串城", "name":"001122.jpg"},
{"lat":22.5292102, "lng":114.0572483, "address":"小龙虾老火锅", "name":"001123.jpg"},
{"lat":22.5698710, "lng":114.1494645, "address":"东深供水纪念碑", "name":"001124.jpg"},
{"lat":22.5381559, "lng":114.0607855, "address":"招商证券", "name":"001125.jpg"},
{"lat":22.5369965, "lng":114.1169459, "address":"紅須小館", "name":"001126.jpg"},
{"lat":22.5345804, "lng":114.0594247, "address":"海底捞火锅", "name":"001127.jpg"},
{"lat":22.6899784, "lng":113.9927028, "address":"維爾晶科技", "name":"001128.jpg"},
{"lat":22.5363767, "lng":113.9433726, "address":"深圳瑞昱半导体", "name":"001129.jpg"},
{"lat":22.5084531, "lng":113.8862627, "address":"深圳瑞昱半导体", "name":"001130.jpg"},
{"lat":22.5198448, "lng":114.0592624, "address":"漁米軒粥底火鍋", "name":"001131.jpg"},
{"lat":22.4971071, "lng":113.8835638, "address":"漁米軒粥底火鍋", "name":"001132.jpg"},
{"lat":22.5242815, "lng":113.9228856, "address":"深圳東華嘉悅酒店", "name":"001133.jpg"},
{"lat":22.5455632, "lng":113.9479867, "address":"深圳東華嘉悅酒店", "name":"001134.jpg"},
{"lat":22.5664240, "lng":113.8960573, "address":"招商银行ATM", "name":"001135.jpg"},
{"lat":22.5508907, "lng":113.9099142, "address":"招商银行ATM", "name":"001136.jpg"},
{"lat":22.4973211, "lng":113.9263986, "address":"四海公寓A座", "name":"001137.jpg"},
{"lat":22.7267710, "lng":114.2437812, "address":"华夏银行", "name":"001138.jpg"},
{"lat":22.5442299, "lng":114.0988110, "address":"邓小平画像", "name":"001139.jpg"},
{"lat":22.5433841, "lng":114.0777986, "address":"邓小平画像", "name":"001140.jpg"},
{"lat":22.5659266, "lng":114.0782906, "address":"笔俊峰", "name":"001141.jpg"},
{"lat":22.5668250, "lng":114.0803052, "address":"笔冠峰", "name":"001142.jpg"},
{"lat":22.8241971, "lng":113.8842315, "address":"笔冠峰", "name":"001143.jpg"},
{"lat":22.6505900, "lng":114.5559887, "address":"田寮下", "name":"001144.jpg"},
{"lat":22.5362611, "lng":113.9726902, "address":"田寮下", "name":"001145.jpg"},
{"lat":22.7526546, "lng":114.2490577, "address":"龙岗天主教堂", "name":"001146.jpg"},
{"lat":22.6111301, "lng":113.8175335, "address":"龙岗天主教堂", "name":"001147.jpg"},
{"lat":22.6273037, "lng":113.8084541, "address":"深圳机场商务贵宾楼", "name":"001148.jpg"},
{"lat":22.6245945, "lng":113.8064711, "address":"深圳机场商务贵宾楼", "name":"001149.jpg"},
{"lat":22.6272080, "lng":113.8118348, "address":"一号停车场", "name":"001150.jpg"},
{"lat":22.6244798, "lng":113.8072770, "address":"二号停车场", "name":"001151.jpg"},
{"lat":22.5359513, "lng":114.0239902, "address":"天安数码城", "name":"001152.jpg"},
{"lat":22.5260054, "lng":114.1124072, "address":"天安数码城", "name":"001153.jpg"},
{"lat":22.5399423, "lng":114.0905789, "address":"Sugar", "name":"001154.jpg"},
{"lat":22.5434408, "lng":114.0861220, "address":"Sugar", "name":"001155.jpg"},
{"lat":22.5438331, "lng":114.0860202, "address":"爱华宾馆", "name":"001156.jpg"},
{"lat":22.5786037, "lng":114.0821216, "address":"迪嘉銀湖會所", "name":"001157.jpg"},
{"lat":22.5392569, "lng":113.9716106, "address":"迪嘉銀湖會所", "name":"001158.jpg"},
{"lat":22.6622521, "lng":114.0527560, "address":"Starshine", "name":"001159.jpg"},
{"lat":22.5466480, "lng":114.0840562, "address":"shanshui", "name":"001160.jpg"},
{"lat":22.5441387, "lng":113.9250545, "address":"如家精選酒店", "name":"001161.jpg"},
{"lat":22.5597698, "lng":113.9623797, "address":"如家精選酒店", "name":"001162.jpg"},
{"lat":22.5350373, "lng":113.9163287, "address":"四方麵莊", "name":"001163.jpg"},
{"lat":22.5435941, "lng":113.9875482, "address":"四方麵莊", "name":"001164.jpg"},
{"lat":22.5517013, "lng":114.0910322, "address":"通新岭", "name":"001165.jpg"},
{"lat":22.7509667, "lng":113.8049435, "address":"码头桥", "name":"001166.jpg"},
{"lat":22.5491644, "lng":114.0815531, "address":"码头桥", "name":"001167.jpg"},
{"lat":22.6141302, "lng":114.2316500, "address":"谭仙公庙", "name":"001168.jpg"},
{"lat":22.5601566, "lng":113.9623599, "address":"谭仙公庙", "name":"001169.jpg"},
{"lat":22.5397153, "lng":113.9403379, "address":"六千館", "name":"001170.jpg"},
{"lat":22.4857027, "lng":113.9093522, "address":"六千館", "name":"001171.jpg"},
{"lat":22.5397470, "lng":113.9403353, "address":"吉野家", "name":"001172.jpg"},
{"lat":22.5550269, "lng":114.1138067, "address":"五号大院12，13栋", "name":"001173.jpg"},
{"lat":22.7392358, "lng":113.9389309, "address":"招商局光明科学城", "name":"001174.jpg"},
{"lat":22.4874458, "lng":113.9079277, "address":"明华中心", "name":"001175.jpg"},
{"lat":22.5004560, "lng":113.9137951, "address":"蛇口海关", "name":"001176.jpg"},
{"lat":22.4989686, "lng":113.9167576, "address":"蛇口国税局", "name":"001177.jpg"},
{"lat":22.4972333, "lng":113.9184473, "address":"蛇口体育中心", "name":"001178.jpg"},
{"lat":22.4949881, "lng":113.9200915, "address":"花果山", "name":"001179.jpg"},
{"lat":22.5472891, "lng":114.0050197, "address":"经济犯罪侦察局", "name":"001180.jpg"},
{"lat":22.5479604, "lng":114.0088579, "address":"市眼科医院", "name":"001181.jpg"},
{"lat":22.5368898, "lng":113.9273511, "address":"深圳大学", "name":"001182.jpg"},
{"lat":22.4970338, "lng":113.9185010, "address":"蛇口体育中心", "name":"001183.jpg"},
{"lat":22.4988540, "lng":113.9166912, "address":"蛇口国税局", "name":"001184.jpg"},
{"lat":22.5003098, "lng":113.9137481, "address":"蛇口海关", "name":"001185.jpg"},
{"lat":22.4749981, "lng":113.9005959, "address":"招港大厦", "name":"001186.jpg"},
{"lat":22.4751605, "lng":113.9010693, "address":"招港大厦", "name":"001187.jpg"},
{"lat":22.4729620, "lng":113.8988659, "address":"招商港务", "name":"001188.jpg"},
{"lat":22.4727588, "lng":113.8989866, "address":"招商港务", "name":"001189.jpg"},
{"lat":22.4689505, "lng":113.8916883, "address":"价值工厂", "name":"001190.jpg"},
{"lat":22.4690001, "lng":113.8934129, "address":"价值工厂", "name":"001191.jpg"},
{"lat":22.4668697, "lng":113.8901997, "address":"蛇口SCT码头", "name":"001192.jpg"},
{"lat":22.5420075, "lng":113.9866131, "address":"蛇口SCT码头", "name":"001193.jpg"},
{"lat":22.5551688, "lng":113.9206454, "address":"方鼎华庭", "name":"001194.jpg"},
{"lat":22.5560729, "lng":113.9203356, "address":"方鼎华庭", "name":"001195.jpg"},
{"lat":22.4816007, "lng":113.8878234, "address":"天后宫", "name":"001196.jpg"},
{"lat":22.4820058, "lng":113.8873552, "address":"天后宫", "name":"001197.jpg"},
{"lat":22.4804631, "lng":113.8910539, "address":"赤湾总部大厦南", "name":"001198.jpg"},
{"lat":22.4802735, "lng":113.8911720, "address":"赤湾总部大厦南", "name":"001199.jpg"},
{"lat":22.4761381, "lng":113.8892063, "address":"油码头", "name":"001200.jpg"},
{"lat":22.5380030, "lng":113.9147003, "address":"南山欢乐颂", "name":"001201.jpg"},
{"lat":22.5379485, "lng":113.9144656, "address":"南山欢乐颂", "name":"001202.jpg"},
{"lat":22.5408953, "lng":113.9152327, "address":"南新深南天桥", "name":"001203.jpg"},
{"lat":22.5411219, "lng":113.9150034, "address":"南新深南天桥", "name":"001204.jpg"},
{"lat":22.5454719, "lng":113.9190486, "address":"南山公安分局", "name":"001205.jpg"},
{"lat":22.5456368, "lng":113.9185747, "address":"南山公安分局", "name":"001206.jpg"},
{"lat":22.5604522, "lng":113.9195538, "address":"南山农批市场", "name":"001207.jpg"},
{"lat":22.5603085, "lng":113.9191541, "address":"南山农批市场", "name":"001208.jpg"},
{"lat":22.5549446, "lng":113.9357771, "address":"北环科苑天桥", "name":"001209.jpg"},
{"lat":22.5558153, "lng":113.9349443, "address":"北环科苑天桥", "name":"001210.jpg"},
{"lat":22.5549434, "lng":113.9391473, "address":"海能达大厦", "name":"001211.jpg"},
{"lat":22.5558789, "lng":113.9381885, "address":"海能达大厦", "name":"001212.jpg"},
{"lat":22.5566254, "lng":113.9403145, "address":"科苑北环立交", "name":"001213.jpg"},
{"lat":22.5578531, "lng":113.9407152, "address":"北环科苑立交", "name":"001214.jpg"},
{"lat":22.5564866, "lng":113.9402926, "address":"科苑北环立交", "name":"001215.jpg"},
{"lat":22.5596522, "lng":113.9418638, "address":"阜外深圳医院", "name":"001216.jpg"},
{"lat":22.5598639, "lng":113.9419073, "address":"阜外深圳医院", "name":"001217.jpg"},
{"lat":22.5587605, "lng":113.9458609, "address":"朗山路中", "name":"001218.jpg"},
{"lat":22.5589648, "lng":113.9451072, "address":"朗山路中", "name":"001219.jpg"},
{"lat":22.5635285, "lng":113.9485866, "address":"松坪学校小学部", "name":"001220.jpg"},
{"lat":22.5639326, "lng":113.9473085, "address":"松坪学校小学部", "name":"001221.jpg"},
{"lat":22.5811803, "lng":113.9495637, "address":"西丽法庭", "name":"001222.jpg"},
{"lat":22.5816409, "lng":113.9491761, "address":"西丽法庭", "name":"001223.jpg"},
{"lat":22.5553802, "lng":113.9059500, "address":"深南北环立交", "name":"001224.jpg"},
{"lat":22.5553815, "lng":113.9057124, "address":"深南北环立交", "name":"001225.jpg"},
{"lat":22.6028318, "lng":113.9957363, "address":"社康中心", "name":"001226.jpg"},
{"lat":22.6027532, "lng":113.9957257, "address":"社康中心", "name":"001227.jpg"},
{"lat":22.5995372, "lng":113.9915422, "address":"科研楼", "name":"001228.jpg"},
{"lat":22.5575003, "lng":113.8611502, "address":"科研楼", "name":"001229.jpg"},
{"lat":22.6029197, "lng":113.9937371, "address":"湖畔超市", "name":"001230.jpg"},
{"lat":22.6031167, "lng":113.9933170, "address":"创客空间", "name":"001231.jpg"},
{"lat":22.6034509, "lng":113.9940060, "address":"无人值守图书馆", "name":"001232.jpg"},
{"lat":22.6028611, "lng":113.9955697, "address":"无人值守图书馆", "name":"001233.jpg"},
{"lat":22.4656277, "lng":113.8962028, "address":"后海二湾", "name":"001234.jpg"},
{"lat":22.5278381, "lng":114.0569072, "address":"后海二湾", "name":"001235.jpg"},
{"lat":22.5563029, "lng":114.1219567, "address":"聚龙大厦", "name":"001236.jpg"},
{"lat":22.5635017, "lng":113.8610046, "address":"中英公学西", "name":"001237.jpg"},
{"lat":22.5628343, "lng":113.8623384, "address":"中英公学西", "name":"001238.jpg"},
{"lat":22.4879773, "lng":113.9268755, "address":"蛇口广场", "name":"001239.jpg"},
{"lat":22.5513980, "lng":113.8965115, "address":"宝安实验学校", "name":"001240.jpg"},
{"lat":22.5655893, "lng":113.8830140, "address":"金成名苑", "name":"001241.jpg"},
{"lat":22.5634072, "lng":113.8843042, "address":"金成名苑", "name":"001242.jpg"},
{"lat":22.5615198, "lng":113.8672064, "address":"深业新岸线西", "name":"001243.jpg"},
{"lat":22.5614965, "lng":113.8668586, "address":"深业新岸线西", "name":"001244.jpg"},
{"lat":22.5629978, "lng":113.8629022, "address":"豪业华庭", "name":"001245.jpg"},
{"lat":22.5627459, "lng":113.8625633, "address":"豪业华庭", "name":"001246.jpg"},
{"lat":22.5689506, "lng":113.8538117, "address":"富通城", "name":"001247.jpg"},
{"lat":22.5489985, "lng":114.0781889, "address":"富通城", "name":"001248.jpg"},
{"lat":22.5693529, "lng":114.0643166, "address":"曾生墓碑", "name":"001249.jpg"},
{"lat":22.5692377, "lng":114.0627216, "address":"芳名亭", "name":"001250.jpg"},
{"lat":22.5688649, "lng":114.0628186, "address":"芳名亭", "name":"001251.jpg"},
{"lat":22.5350838, "lng":113.9367416, "address":"阳光粤海大厦", "name":"001252.jpg"},
{"lat":22.7815922, "lng":113.8349807, "address":"杨国福麻辣烫", "name":"001253.jpg"},
{"lat":22.6044922, "lng":113.9982536, "address":"松禾体育场", "name":"001254.jpg"},
{"lat":22.5517991, "lng":114.0761097, "address":"松禾体育场", "name":"001255.jpg"},
{"lat":22.5083563, "lng":114.0370761, "address":"鑫瑞科技大厦", "name":"001256.jpg"},
{"lat":22.7782952, "lng":113.8351594, "address":"鑫瑞科技大厦", "name":"001257.jpg"},
{"lat":22.7154247, "lng":113.8312045, "address":"沙井电子城", "name":"001258.jpg"},
{"lat":22.7152847, "lng":113.8303905, "address":"沙井电子城", "name":"001259.jpg"},
{"lat":22.5709357, "lng":114.1274051, "address":"泰宁路西", "name":"001260.jpg"},
{"lat":22.5715739, "lng":114.1325845, "address":"百仕达东郡", "name":"001261.jpg"},
{"lat":22.5706076, "lng":114.1348674, "address":"泰宁小学", "name":"001262.jpg"},
{"lat":22.5716192, "lng":114.1330771, "address":"百仕达东郡", "name":"001263.jpg"},
{"lat":22.5708473, "lng":114.1266419, "address":"泰宁路西", "name":"001264.jpg"},
{"lat":22.5691569, "lng":114.1213321, "address":"田贝四路", "name":"001265.jpg"},
{"lat":22.5623434, "lng":114.1142765, "address":"洪湖小学", "name":"001266.jpg"},
{"lat":22.5564565, "lng":114.1154575, "address":"深圳中学", "name":"001267.jpg"},
{"lat":22.5529489, "lng":114.1156763, "address":"晒布路", "name":"001268.jpg"},
{"lat":22.5430466, "lng":114.1268718, "address":"文锦渡口岸", "name":"001269.jpg"},
{"lat":22.5427257, "lng":114.1189726, "address":"丽都酒店", "name":"001270.jpg"},
{"lat":22.5450842, "lng":114.1175201, "address":"金城大厦", "name":"001271.jpg"},
{"lat":22.5607153, "lng":114.1250383, "address":"翠竹苑", "name":"001272.jpg"},
{"lat":22.5628940, "lng":114.1247896, "address":"翠竹万家", "name":"001273.jpg"},
{"lat":22.5663003, "lng":114.1253013, "address":"康宁医院", "name":"001274.jpg"},
{"lat":22.5795523, "lng":114.1291980, "address":"太白路中", "name":"001275.jpg"},
{"lat":22.5842825, "lng":114.1333188, "address":"太白路中", "name":"001276.jpg"},
{"lat":22.5833627, "lng":114.1305251, "address":"东昌北", "name":"001277.jpg"},
{"lat":22.5903334, "lng":114.1251350, "address":"戒毒所", "name":"001278.jpg"},
{"lat":22.5388227, "lng":113.9619838, "address":"椒游老坛黑鱼", "name":"001279.jpg"},
{"lat":22.5239161, "lng":113.9261504, "address":"椒游老坛黑鱼", "name":"001280.jpg"},
{"lat":22.5349373, "lng":113.9242527, "address":"味乐韩国料理", "name":"001281.jpg"},
{"lat":22.5237286, "lng":113.9259954, "address":"味乐韩国料理", "name":"001282.jpg"},
{"lat":22.5369836, "lng":113.9817274, "address":"华侨城旅行社", "name":"001283.jpg"},
{"lat":22.6799899, "lng":113.9339791, "address":"华侨城旅行社", "name":"001284.jpg"},
{"lat":22.5969666, "lng":113.9925316, "address":"行政楼", "name":"001285.jpg"},
{"lat":22.6017929, "lng":114.0048407, "address":"行政楼", "name":"001286.jpg"},
{"lat":22.5714790, "lng":114.0286862, "address":"梅林水库办公室", "name":"001287.jpg"},
{"lat":22.6188382, "lng":114.0770112, "address":"银湖山南门", "name":"001288.jpg"},
{"lat":22.6188297, "lng":114.0770416, "address":"银湖山南出口", "name":"001289.jpg"},
{"lat":22.5715012, "lng":114.0286701, "address":"梅林水库办公室", "name":"001290.jpg"},
{"lat":22.5886866, "lng":114.1162693, "address":"绿景山庄", "name":"001291.jpg"},
{"lat":22.5859137, "lng":114.1133171, "address":"如家快捷酒店", "name":"001292.jpg"},
{"lat":22.5860923, "lng":114.1132288, "address":"深圳市公安局", "name":"001293.jpg"},
{"lat":22.5885028, "lng":114.1163470, "address":"绿景山庄", "name":"001294.jpg"},
{"lat":22.5889867, "lng":114.1255840, "address":"戒毒所", "name":"001295.jpg"},
{"lat":22.5825800, "lng":114.1304420, "address":"东昌北", "name":"001296.jpg"},
{"lat":22.5629737, "lng":114.1245440, "address":"翠竹万家", "name":"001297.jpg"},
{"lat":22.5623180, "lng":114.1250220, "address":"面点王", "name":"001298.jpg"},
{"lat":22.5605067, "lng":114.1248819, "address":"翠竹苑", "name":"001299.jpg"},
{"lat":22.5478293, "lng":114.1226448, "address":"深圳市公安局", "name":"001300.jpg"},
{"lat":22.5414652, "lng":114.1242380, "address":"文锦渡海关", "name":"001301.jpg"},
{"lat":22.5412026, "lng":114.1235246, "address":"惠州酒店", "name":"001302.jpg"},
{"lat":22.5415742, "lng":114.1250212, "address":"文锦渡海关", "name":"001303.jpg"},
{"lat":22.5427397, "lng":114.1274074, "address":"暂停服务", "name":"001304.jpg"},
{"lat":22.6415011, "lng":113.8210995, "address":"暂停服务", "name":"001305.jpg"},
{"lat":22.5372787, "lng":114.0519375, "address":"卓越时代广场", "name":"001306.jpg"},
{"lat":22.5402442, "lng":114.0720795, "address":"福田中学", "name":"001307.jpg"},
{"lat":22.5981357, "lng":113.8957601, "address":"曦城商业中心", "name":"001308.jpg"},
{"lat":22.5937895, "lng":113.9871413, "address":"曦城商业中心", "name":"001309.jpg"},
{"lat":22.5116178, "lng":114.0341985, "address":"广电信号发射塔", "name":"001310.jpg"},
{"lat":22.5308915, "lng":113.9961371, "address":"广电信号发射塔", "name":"001311.jpg"},
{"lat":22.5589944, "lng":114.1300699, "address":"明珠学校", "name":"001312.jpg"},
{"lat":22.4902131, "lng":113.9290925, "address":"顺丰速运", "name":"001313.jpg"},
{"lat":22.4936402, "lng":113.9234519, "address":"顺丰速运", "name":"001314.jpg"},
{"lat":22.5429551, "lng":114.0783544, "address":"上海宾馆", "name":"001315.jpg"},
{"lat":22.5431705, "lng":114.0893207, "address":"兴华宾馆东", "name":"001316.jpg"},
{"lat":22.5433125, "lng":114.0963555, "address":"市党群服务中心", "name":"001317.jpg"},
{"lat":22.5435716, "lng":114.1014167, "address":"地王大厦", "name":"001318.jpg"},
{"lat":22.5446775, "lng":114.1048791, "address":"地王大厦", "name":"001319.jpg"},
{"lat":22.5436147, "lng":114.0977117, "address":"市党群服务中心", "name":"001320.jpg"},
{"lat":22.5434602, "lng":114.0888185, "address":"兴华宾馆东", "name":"001321.jpg"},
{"lat":22.5375980, "lng":114.0519049, "address":"卓越时代广场", "name":"001322.jpg"},
{"lat":22.6334446, "lng":114.1433499, "address":"深圳法律创意园", "name":"001323.jpg"},
{"lat":22.6734482, "lng":114.0394124, "address":"清湖学校", "name":"001324.jpg"},
{"lat":22.6979444, "lng":114.0443635, "address":"世纪广场", "name":"001325.jpg"},
{"lat":22.6787409, "lng":114.0430908, "address":"梅龙北", "name":"001326.jpg"},
{"lat":22.5665146, "lng":114.0220173, "address":"晓风亭", "name":"001327.jpg"},
{"lat":22.6263463, "lng":113.8085315, "address":"满记甜品", "name":"001328.jpg"},
{"lat":22.5373502, "lng":114.0231198, "address":"天竺教堂", "name":"001329.jpg"},
{"lat":22.5373898, "lng":114.0228623, "address":"清真寺", "name":"001330.jpg"},
{"lat":22.6282673, "lng":113.8070333, "address":"小米之家", "name":"001331.jpg"},
{"lat":22.6292071, "lng":113.8086925, "address":"小米之家", "name":"001332.jpg"},
{"lat":22.5417976, "lng":114.0971996, "address":"老王家北方餃子館", "name":"001333.jpg"},
{"lat":22.5343869, "lng":113.9846595, "address":"敦煌莫高窟模型", "name":"001334.jpg"},
{"lat":22.5355860, "lng":113.9873149, "address":"长城模型", "name":"001335.jpg"},
{"lat":22.5341813, "lng":113.9819813, "address":"风味小吃", "name":"001336.jpg"},
{"lat":22.5329637, "lng":113.9813389, "address":"风味小吃", "name":"001337.jpg"},
{"lat":22.6540678, "lng":113.7929327, "address":"机场北", "name":"001338.jpg"},
{"lat":22.5427372, "lng":114.0482381, "address":"福田", "name":"001339.jpg"},
{"lat":22.5787600, "lng":113.8502403, "address":"碧海湾", "name":"001340.jpg"},
{"lat":22.7115290, "lng":114.0689824, "address":"壹加壹美食城", "name":"001341.jpg"},
{"lat":22.4929271, "lng":113.9295794, "address":"哈茶世家", "name":"001342.jpg"},
{"lat":22.4894981, "lng":113.9262914, "address":"有家便利店", "name":"001343.jpg"},
{"lat":22.4878038, "lng":113.9270880, "address":"木屋烧烤", "name":"001344.jpg"},
{"lat":22.5582486, "lng":114.0810079, "address":"木屋烧烤", "name":"001345.jpg"},
{"lat":22.7337468, "lng":114.2250969, "address":"万科翰林城一期", "name":"001346.jpg"},
{"lat":22.5356224, "lng":113.9175523, "address":"万科翰林城一期", "name":"001347.jpg"},
{"lat":22.5392582, "lng":113.9631534, "address":"璀璨明珠健身会", "name":"001348.jpg"},
{"lat":22.5392741, "lng":113.9632233, "address":"璀璨明珠健身会", "name":"001349.jpg"},
{"lat":22.5393446, "lng":113.9625036, "address":"仁安雅门诊部", "name":"001350.jpg"},
{"lat":22.5387246, "lng":113.9635423, "address":"申通快递", "name":"001351.jpg"},
{"lat":22.5389952, "lng":113.9630471, "address":"申通快递", "name":"001352.jpg"},
{"lat":22.5387319, "lng":113.9627146, "address":"深岩燃气", "name":"001353.jpg"},
{"lat":22.5385866, "lng":113.9628685, "address":"深岩燃气", "name":"001354.jpg"},
{"lat":22.5386008, "lng":113.9629132, "address":"中通快递（普通网点）", "name":"001355.jpg"},
{"lat":22.5385510, "lng":113.9630518, "address":"中通快递（普通网点）", "name":"001356.jpg"},
{"lat":22.5381252, "lng":113.9635602, "address":"中通快递红树湾中心", "name":"001357.jpg"},
{"lat":22.5386340, "lng":113.9634059, "address":"中通快递红树湾中心", "name":"001358.jpg"},
{"lat":22.5388687, "lng":113.9626147, "address":"圆通速递", "name":"001359.jpg"},
{"lat":22.7033750, "lng":113.8044333, "address":"惠乐购超市广德源店", "name":"001360.jpg"},
{"lat":22.7026327, "lng":113.8046265, "address":"佳泰药业集团", "name":"001361.jpg"},
{"lat":22.7030681, "lng":113.8025612, "address":"深圳市城诚包装制品有限公司", "name":"001362.jpg"},
{"lat":22.7006738, "lng":113.8023024, "address":"深圳市城诚包装制品有限公司", "name":"001363.jpg"},
{"lat":22.5081520, "lng":113.9229387, "address":"Railway", "name":"001364.jpg"},
{"lat":22.5557683, "lng":113.8845803, "address":"Railway", "name":"001365.jpg"},
{"lat":22.5606256, "lng":113.8865518, "address":"宝安之声", "name":"001366.jpg"},
{"lat":22.5614344, "lng":113.8859960, "address":"四季之门", "name":"001367.jpg"},
{"lat":22.5614063, "lng":113.8877363, "address":"滨之珠", "name":"001368.jpg"},
{"lat":22.5631615, "lng":113.8762876, "address":"滨之珠", "name":"001369.jpg"},
{"lat":22.7033799, "lng":113.8101813, "address":"华强城营销中心", "name":"001370.jpg"},
{"lat":22.7038414, "lng":113.8125491, "address":"华强城营销中心", "name":"001371.jpg"},
{"lat":22.6571376, "lng":114.1005965, "address":"甘坑古镇", "name":"001372.jpg"},
{"lat":22.5556201, "lng":113.8728695, "address":"甘坑古镇", "name":"001373.jpg"},
{"lat":22.6163336, "lng":113.8354667, "address":"麗枫酒店", "name":"001374.jpg"},
{"lat":22.5341408, "lng":114.4847751, "address":"双拥码头", "name":"001375.jpg"},
{"lat":22.5456599, "lng":113.9236214, "address":"双拥码头", "name":"001376.jpg"},
{"lat":22.4527713, "lng":114.4991031, "address":"大鹿湾海域界碑原址", "name":"001377.jpg"},
{"lat":22.6002425, "lng":114.1765861, "address":"金石艺术博物馆", "name":"001378.jpg"},
{"lat":22.5344001, "lng":113.9262621, "address":"金石艺术博物馆", "name":"001379.jpg"},
{"lat":22.5459095, "lng":114.2262620, "address":"鱼灯舞广场", "name":"001380.jpg"},
{"lat":22.5462279, "lng":114.2280799, "address":"鱼灯舞广场", "name":"001381.jpg"},
{"lat":22.5242106, "lng":114.0456487, "address":"潮人爷·音乐牛肉火锅", "name":"001382.jpg"},
{"lat":22.5240471, "lng":114.0456297, "address":"潮人爷·音乐牛肉火锅", "name":"001383.jpg"},
{"lat":22.4902153, "lng":113.9060244, "address":"木屋燒烤", "name":"001384.jpg"},
{"lat":22.4915710, "lng":113.9057463, "address":"小龙坎老火锅", "name":"001385.jpg"},
{"lat":22.6383285, "lng":114.0748399, "address":"小龙坎老火锅", "name":"001386.jpg"},
{"lat":22.5991929, "lng":114.3216340, "address":"墩洲角", "name":"001387.jpg"},
{"lat":22.5973426, "lng":114.2959884, "address":"ZTE", "name":"001388.jpg"},
{"lat":22.6000363, "lng":113.8291549, "address":"ZTE", "name":"001389.jpg"},
{"lat":22.5271304, "lng":113.9870725, "address":"Xiao", "name":"001390.jpg"},
{"lat":22.5460151, "lng":114.1258508, "address":"Xiao", "name":"001391.jpg"},
{"lat":22.6093966, "lng":114.3653532, "address":"牛角岭", "name":"001392.jpg"},
{"lat":22.6222551, "lng":114.4161279, "address":"虎地排", "name":"001393.jpg"},
{"lat":22.6389209, "lng":114.4763953, "address":"铁屎湖", "name":"001394.jpg"},
{"lat":22.6331668, "lng":114.4205668, "address":"担水南", "name":"001395.jpg"},
{"lat":22.6350338, "lng":114.4193329, "address":"担水北", "name":"001396.jpg"},
{"lat":22.5549740, "lng":113.8837552, "address":"Ole'精品超市", "name":"001397.jpg"},
{"lat":22.5557127, "lng":113.8827742, "address":"陈鹏鹏鹅肉饭店", "name":"001398.jpg"},
{"lat":22.5559727, "lng":113.8814492, "address":"SpaceLab", "name":"001399.jpg"},
{"lat":22.5557808, "lng":113.8826186, "address":"翠华餐厅", "name":"001400.jpg"},
{"lat":22.5556495, "lng":113.8828547, "address":"满记甜品", "name":"001401.jpg"},
{"lat":22.5546438, "lng":113.8839517, "address":"星聚汇影城", "name":"001402.jpg"},
{"lat":22.5671484, "lng":114.4903091, "address":"星聚汇影城", "name":"001403.jpg"},
{"lat":22.5867152, "lng":113.9636495, "address":"深圳凡几网络科技有限公司", "name":"001404.jpg"},
{"lat":22.5712978, "lng":114.1298045, "address":"深圳凡几网络科技有限公司", "name":"001405.jpg"},
{"lat":22.5454874, "lng":114.0881860, "address":"dom", "name":"001406.jpg"},
{"lat":22.5414523, "lng":114.1086637, "address":"金威大厦", "name":"001407.jpg"},
{"lat":22.6265130, "lng":113.8085285, "address":"MUJI", "name":"001408.jpg"},
{"lat":22.6263777, "lng":113.8092316, "address":"周黑鸭", "name":"001409.jpg"},
{"lat":22.6257236, "lng":113.8086266, "address":"长途巴士售票处", "name":"001410.jpg"},
{"lat":22.6259149, "lng":113.8091045, "address":"长途巴士售票处", "name":"001411.jpg"},
{"lat":22.5513825, "lng":114.0900587, "address":"四川宾馆", "name":"001412.jpg"},
{"lat":22.5521594, "lng":114.0830067, "address":"凤凰楼", "name":"001413.jpg"},
{"lat":22.5521394, "lng":114.0819363, "address":"凤凰楼", "name":"001414.jpg"},
{"lat":22.5462890, "lng":114.0908281, "address":"深圳市总工会", "name":"001415.jpg"},
{"lat":22.5302776, "lng":114.0705084, "address":"深圳市总工会", "name":"001416.jpg"},
{"lat":22.5866634, "lng":113.9639885, "address":"回家乡湘菜馆", "name":"001417.jpg"},
{"lat":22.7291891, "lng":114.2694099, "address":"东亚银行", "name":"001418.jpg"},
{"lat":22.6625441, "lng":114.0182497, "address":"三和人才市场", "name":"001419.jpg"},
{"lat":22.6598945, "lng":114.0104203, "address":"东江纵队革命烈士纪念碑", "name":"001420.jpg"},
{"lat":22.6573997, "lng":114.0280757, "address":"东江纵队革命烈士纪念碑", "name":"001421.jpg"},
{"lat":22.4868151, "lng":114.5450618, "address":"西涌四号浴场", "name":"001422.jpg"},
{"lat":22.5095533, "lng":114.5215382, "address":"深圳第一花遗址陈列馆", "name":"001423.jpg"},
{"lat":22.5303403, "lng":114.5021169, "address":"深圳第一花遗址陈列馆", "name":"001424.jpg"},
{"lat":22.6837570, "lng":113.9335525, "address":"宝石路", "name":"001425.jpg"},
{"lat":22.5072259, "lng":113.9423518, "address":"深圳湾口岸", "name":"001426.jpg"},
{"lat":22.5358937, "lng":114.0575270, "address":"McKinsey", "name":"001427.jpg"},
{"lat":22.5310829, "lng":113.9140366, "address":"湛江燒臘快餐", "name":"001428.jpg"},
{"lat":22.5390606, "lng":114.0564185, "address":"北京银行", "name":"001429.jpg"},
{"lat":22.7631212, "lng":113.8543901, "address":"沃爾瑪", "name":"001430.jpg"},
{"lat":22.5923839, "lng":114.1076482, "address":"沃爾瑪", "name":"001431.jpg"},
{"lat":22.5411955, "lng":114.0474030, "address":"兴业银行", "name":"001432.jpg"},
{"lat":22.5503555, "lng":114.0621623, "address":"兴业银行", "name":"001433.jpg"},
{"lat":22.5954439, "lng":114.4639971, "address":"龙岩古寺", "name":"001434.jpg"},
{"lat":22.6679248, "lng":114.0348133, "address":"龙岩古寺", "name":"001435.jpg"},
{"lat":22.6317614, "lng":114.2710259, "address":"茵特拉根登山口", "name":"001436.jpg"},
{"lat":22.6180897, "lng":114.2681489, "address":"茵特拉根登山口", "name":"001437.jpg"},
{"lat":22.5994973, "lng":114.0422221, "address":"海南椰子鸡", "name":"001438.jpg"},
{"lat":22.6000569, "lng":114.0417947, "address":"Nike", "name":"001439.jpg"},
{"lat":22.6001767, "lng":114.0419325, "address":"Adidas", "name":"001440.jpg"},
{"lat":22.6798557, "lng":114.4237418, "address":"田心山顶（燕子尾）", "name":"001441.jpg"},
{"lat":22.5995220, "lng":114.0343241, "address":"贝多芬", "name":"001442.jpg"},
{"lat":22.5982700, "lng":114.0349623, "address":"音乐塑像2", "name":"001443.jpg"},
{"lat":22.5984167, "lng":114.0347979, "address":"音乐塑像1", "name":"001444.jpg"},
{"lat":22.5992812, "lng":114.0344340, "address":"山顶凉亭", "name":"001445.jpg"},
{"lat":22.5992816, "lng":114.0422918, "address":"老佛爷铜锅田鸡", "name":"001446.jpg"},
{"lat":22.5999740, "lng":114.0420666, "address":"华为客户服务中心", "name":"001447.jpg"},
{"lat":22.6012814, "lng":114.0412526, "address":"优优小王国", "name":"001448.jpg"},
{"lat":22.6010781, "lng":114.0411910, "address":"茜诚咖啡", "name":"001449.jpg"},
{"lat":22.5990352, "lng":114.0328812, "address":"春天的故事", "name":"001450.jpg"},
{"lat":22.5988303, "lng":114.0333394, "address":"故乡情", "name":"001451.jpg"},
{"lat":22.5999400, "lng":114.0323885, "address":"故乡情", "name":"001452.jpg"},
{"lat":22.5982935, "lng":114.0337906, "address":"城市音乐广场", "name":"001453.jpg"},
{"lat":22.6017429, "lng":114.0309824, "address":"Yixiuxincun", "name":"001454.jpg"},
{"lat":22.5997455, "lng":114.0390379, "address":"Yixiuxincun", "name":"001455.jpg"},
{"lat":22.6000315, "lng":114.0424038, "address":"东来顺火锅", "name":"001456.jpg"},
{"lat":22.5979794, "lng":114.0420742, "address":"东来顺火锅", "name":"001457.jpg"},
{"lat":22.5545652, "lng":114.4801148, "address":"Nan'ao", "name":"001458.jpg"},
{"lat":22.5587912, "lng":114.4830706, "address":"Nan'ao", "name":"001459.jpg"},
{"lat":22.5303435, "lng":114.1116177, "address":"Yuewan", "name":"001460.jpg"},
{"lat":22.5998264, "lng":114.0428888, "address":"威斯特迈", "name":"001461.jpg"},
{"lat":22.5997279, "lng":114.0417432, "address":"威斯特迈", "name":"001462.jpg"},
{"lat":22.6628977, "lng":114.0637124, "address":"纵横影城", "name":"001463.jpg"},
{"lat":22.6628206, "lng":114.0635469, "address":"屈臣氏", "name":"001464.jpg"},
{"lat":22.6622110, "lng":114.0625373, "address":"乐购超市", "name":"001465.jpg"},
{"lat":22.6629544, "lng":114.0633911, "address":"海王星辰", "name":"001466.jpg"},
{"lat":22.5994217, "lng":114.0432373, "address":"来来往往-小龙虾", "name":"001467.jpg"},
{"lat":22.5996466, "lng":114.0427366, "address":"来来往往-小龙虾", "name":"001468.jpg"},
{"lat":22.6568391, "lng":114.0355869, "address":"深圳望野博物馆", "name":"001469.jpg"},
{"lat":22.6563837, "lng":114.0350191, "address":"龙华文化艺术中心图书馆", "name":"001470.jpg"},
{"lat":22.6376338, "lng":114.0447632, "address":"林肯中心-4s店", "name":"001471.jpg"},
{"lat":22.6371343, "lng":114.0444815, "address":"标华福特4S店", "name":"001472.jpg"},
{"lat":22.6056121, "lng":114.4274955, "address":"标华福特4S店", "name":"001473.jpg"},
{"lat":22.5491002, "lng":114.0874769, "address":"巴蜀风", "name":"001474.jpg"},
{"lat":22.5489471, "lng":114.0882945, "address":"深圳市城市规划设计院", "name":"001475.jpg"},
{"lat":22.5435487, "lng":113.9291403, "address":"深圳市城市规划设计院", "name":"001476.jpg"},
{"lat":22.5433509, "lng":113.9342515, "address":"BMW", "name":"001477.jpg"},
{"lat":22.5438448, "lng":113.9297493, "address":"腾大北广场", "name":"001478.jpg"},
{"lat":22.5443053, "lng":113.9304202, "address":"腾大北广场", "name":"001479.jpg"},
{"lat":22.5193052, "lng":114.0651309, "address":"凯悦华城", "name":"001480.jpg"},
{"lat":22.7371707, "lng":113.8374835, "address":"长丰酒店", "name":"001481.jpg"},
{"lat":22.5360723, "lng":113.9971186, "address":"长丰酒店", "name":"001482.jpg"},
{"lat":22.7015874, "lng":113.7593338, "address":"国际会展中心", "name":"001483.jpg"},
{"lat":22.7018288, "lng":113.7594796, "address":"国际会展中心", "name":"001484.jpg"},
{"lat":22.6032055, "lng":113.9978877, "address":"教工餐厅", "name":"001485.jpg"},
{"lat":22.5309940, "lng":113.9103567, "address":"教工餐厅", "name":"001486.jpg"},
{"lat":22.5675751, "lng":114.0646625, "address":"房管所", "name":"001487.jpg"},
{"lat":22.5633944, "lng":114.1345073, "address":"深圳市第二实验学校停车场入口", "name":"001488.jpg"},
{"lat":22.5637589, "lng":114.1338675, "address":"深圳市第二实验学校停车场", "name":"001489.jpg"},
{"lat":22.5373953, "lng":114.4904014, "address":"南澳医院", "name":"001490.jpg"},
{"lat":22.5376757, "lng":114.4858143, "address":"南澳月亮湾", "name":"001491.jpg"},
{"lat":22.5375837, "lng":114.4860361, "address":"南澳月亮湾", "name":"001492.jpg"},
{"lat":22.5399311, "lng":114.4838101, "address":"南澳水产市场", "name":"001493.jpg"},
{"lat":22.5398016, "lng":114.4835674, "address":"南澳水产市场", "name":"001494.jpg"},
{"lat":22.5452592, "lng":114.4805647, "address":"海滨路中", "name":"001495.jpg"},
{"lat":22.5453718, "lng":114.4803596, "address":"海滨路中", "name":"001496.jpg"},
{"lat":22.5514456, "lng":114.4786392, "address":"南澳办事处", "name":"001497.jpg"},
{"lat":22.5516814, "lng":114.4784291, "address":"南澳办事处", "name":"001498.jpg"},
{"lat":22.5694201, "lng":114.4891102, "address":"水头市场", "name":"001499.jpg"},
{"lat":22.5692743, "lng":114.4889929, "address":"水头市场", "name":"001500.jpg"},
{"lat":22.5758153, "lng":114.4827940, "address":"中国农科院深圳基因组所", "name":"001501.jpg"},
{"lat":22.5756501, "lng":114.4826691, "address":"中国农科院深圳基因组所", "name":"001502.jpg"},
{"lat":22.5383340, "lng":114.4886114, "address":"南澳中学北门", "name":"001503.jpg"},
{"lat":22.6530944, "lng":114.2339235, "address":"南澳中学北门", "name":"001504.jpg"},
{"lat":22.6658558, "lng":114.0681299, "address":"革命烈士纪念碑", "name":"001505.jpg"},
{"lat":22.6235242, "lng":114.1802007, "address":"革命烈士纪念碑", "name":"001506.jpg"},
{"lat":22.6765282, "lng":114.0622735, "address":"香江家私", "name":"001507.jpg"},
{"lat":22.6767927, "lng":114.0628292, "address":"香江家私", "name":"001508.jpg"},
{"lat":22.6770442, "lng":114.0546788, "address":"清湖科目二考场", "name":"001509.jpg"},
{"lat":22.6644797, "lng":114.0644095, "address":"云谷星寓", "name":"001510.jpg"},
{"lat":22.6043742, "lng":114.0388754, "address":"云谷星寓", "name":"001511.jpg"},
{"lat":22.5961265, "lng":113.9625485, "address":"深圳大学城社康中心", "name":"001512.jpg"},
{"lat":22.5025031, "lng":113.8966033, "address":"青青世界酒店", "name":"001513.jpg"},
{"lat":22.5543699, "lng":113.8744807, "address":"青青世界酒店", "name":"001514.jpg"},
{"lat":22.6913269, "lng":114.2084842, "address":"博文书店", "name":"001515.jpg"},
{"lat":22.6974377, "lng":114.2168918, "address":"博文书店", "name":"001516.jpg"},
{"lat":22.5131535, "lng":113.9415331, "address":"我是IT人", "name":"001517.jpg"},
{"lat":22.5239201, "lng":113.9428990, "address":"我是IT人", "name":"001518.jpg"},
{"lat":22.4912932, "lng":113.9236093, "address":"蛇口法制文化广场", "name":"001519.jpg"},
{"lat":22.4892276, "lng":113.9268614, "address":"南山妇幼保健院", "name":"001520.jpg"},
{"lat":22.4900422, "lng":113.9248824, "address":"南山妇幼保健院", "name":"001521.jpg"},
{"lat":22.5623042, "lng":113.9790301, "address":"佳佳善鮮牛肉館", "name":"001522.jpg"},
{"lat":22.5574928, "lng":114.1462488, "address":"佳佳善鮮牛肉館", "name":"001523.jpg"},
{"lat":22.5588174, "lng":114.1461548, "address":"深圳市铭利体育发展有限公司", "name":"001524.jpg"},
{"lat":22.5468329, "lng":114.0069020, "address":"3号楼沃尔玛总部", "name":"001525.jpg"},
{"lat":22.5477247, "lng":114.0063602, "address":"V24生鲜时选", "name":"001526.jpg"},
{"lat":22.5204350, "lng":114.0566465, "address":"乐奇便利超市", "name":"001527.jpg"},
{"lat":22.6758123, "lng":114.1502069, "address":"乐奇便利超市", "name":"001528.jpg"},
{"lat":22.5444516, "lng":114.2260968, "address":"中英街警世钟", "name":"001529.jpg"},
{"lat":22.5571666, "lng":114.2189750, "address":"中英街警世钟", "name":"001530.jpg"},
{"lat":22.5362404, "lng":114.0589275, "address":"宁波银行深圳分行", "name":"001531.jpg"},
{"lat":22.5361240, "lng":114.0590536, "address":"臻品轩酒家", "name":"001532.jpg"},
{"lat":22.5624658, "lng":113.9790549, "address":"清遠雞煲", "name":"001533.jpg"},
{"lat":22.5467089, "lng":114.1110126, "address":"清遠雞煲", "name":"001534.jpg"},
{"lat":22.5540291, "lng":114.2220752, "address":"故乡小厨", "name":"001535.jpg"},
{"lat":22.7205967, "lng":113.9026409, "address":"故乡小厨", "name":"001536.jpg"},
{"lat":22.5222283, "lng":113.9238653, "address":"南山书城", "name":"001537.jpg"},
{"lat":22.5222201, "lng":113.9238979, "address":"南山书城", "name":"001538.jpg"},
{"lat":22.5418704, "lng":114.1005542, "address":"京基晶都酒店", "name":"001539.jpg"},
{"lat":22.7158368, "lng":114.2354011, "address":"美国大行折叠车·龙岗中心城店", "name":"001540.jpg"},
{"lat":22.7172273, "lng":114.2367127, "address":"浦发银行", "name":"001541.jpg"},
{"lat":22.7184749, "lng":114.2326039, "address":"富德生命人寿保险服务公司后援中心", "name":"001542.jpg"},
{"lat":22.5389943, "lng":114.0670674, "address":"深圳星语太空舱酒店", "name":"001543.jpg"},
{"lat":22.6177049, "lng":114.2829344, "address":"深圳星语太空舱酒店", "name":"001544.jpg"},
{"lat":22.6311452, "lng":114.2702519, "address":"孙中山庚子首义纪念碑", "name":"001545.jpg"},
{"lat":22.6309544, "lng":114.2702509, "address":"孙中山庚子首义纪念碑", "name":"001546.jpg"},
{"lat":22.5877282, "lng":113.9672202, "address":"哈工大(深圳)", "name":"001547.jpg"},
{"lat":22.5875309, "lng":113.9682510, "address":"哈工大(深圳)", "name":"001548.jpg"},
{"lat":22.7242286, "lng":114.2330695, "address":"长城饺子城", "name":"001549.jpg"},
{"lat":22.7204260, "lng":114.2340941, "address":"紫薇中医馆", "name":"001550.jpg"},
{"lat":22.7175857, "lng":114.2329783, "address":"紫薇中医馆", "name":"001551.jpg"},
{"lat":22.7201019, "lng":114.2340297, "address":"北京同仁堂龙岗分店", "name":"001552.jpg"},
{"lat":22.7199980, "lng":114.2340324, "address":"李敏西医内科诊所", "name":"001553.jpg"},
{"lat":22.7220069, "lng":114.2340485, "address":"欧派衣柜", "name":"001554.jpg"},
{"lat":22.7215937, "lng":114.2340914, "address":"名雕装饰", "name":"001555.jpg"},
{"lat":22.7206189, "lng":114.2340083, "address":"居众装饰", "name":"001556.jpg"},
{"lat":22.7220960, "lng":114.2346949, "address":"桐济堂大药房", "name":"001557.jpg"},
{"lat":22.7221059, "lng":114.2348451, "address":"龙星图书店", "name":"001558.jpg"},
{"lat":22.7220960, "lng":114.2349980, "address":"博士眼镜", "name":"001559.jpg"},
{"lat":22.7169152, "lng":114.2350168, "address":"旭日典当", "name":"001560.jpg"},
{"lat":22.5412649, "lng":114.0878711, "address":"旭日典当", "name":"001561.jpg"},
{"lat":22.7297425, "lng":114.2430878, "address":"国大药房", "name":"001562.jpg"},
{"lat":22.6142259, "lng":114.1323576, "address":"大芬沃尔玛", "name":"001563.jpg"},
{"lat":22.5445075, "lng":113.9523018, "address":"百老匯電影中心（深圳萬象天地）", "name":"001564.jpg"},
{"lat":22.5482951, "lng":113.9451751, "address":"素禾素食（科技園店）", "name":"001565.jpg"},
{"lat":22.5889145, "lng":113.9596299, "address":"桃源康复中心", "name":"001566.jpg"},
{"lat":22.5884080, "lng":113.9595131, "address":"桃源康复中心", "name":"001567.jpg"},
{"lat":22.5660155, "lng":113.9163979, "address":"同乐学校", "name":"001568.jpg"},
{"lat":22.5644198, "lng":113.9161300, "address":"同乐学校", "name":"001569.jpg"},
{"lat":22.6374791, "lng":114.1252511, "address":"第三人民医院", "name":"001570.jpg"},
{"lat":22.6375425, "lng":114.1256670, "address":"第三人民医院", "name":"001571.jpg"},
{"lat":22.7010367, "lng":114.0427557, "address":"观湖美术馆", "name":"001572.jpg"},
{"lat":22.5652835, "lng":113.8608469, "address":"观湖美术馆", "name":"001573.jpg"},
{"lat":22.5450023, "lng":114.0786734, "address":"卢米埃影院", "name":"001574.jpg"},
{"lat":22.5440142, "lng":114.0836978, "address":"卢米埃影院", "name":"001575.jpg"},
{"lat":22.5369476, "lng":114.0481242, "address":"百老汇院线", "name":"001576.jpg"},
{"lat":22.6157439, "lng":113.8570161, "address":"百老汇院线", "name":"001577.jpg"},
{"lat":22.5427932, "lng":113.9127119, "address":"院內鮮果", "name":"001578.jpg"},
{"lat":22.7183936, "lng":114.4017604, "address":"院內鮮果", "name":"001579.jpg"},
{"lat":22.5205143, "lng":113.9286043, "address":"深圳中洲万豪酒店", "name":"001580.jpg"},
{"lat":22.5212338, "lng":113.9280807, "address":"深圳中洲万豪酒店", "name":"001581.jpg"},
{"lat":22.5213548, "lng":113.9291916, "address":"苏宁易购", "name":"001582.jpg"},
{"lat":22.5455293, "lng":114.1015763, "address":"深圳瑞吉酒店", "name":"001583.jpg"},
{"lat":22.5414572, "lng":114.0484614, "address":"深圳投资大厦宾馆", "name":"001584.jpg"},
{"lat":22.5431572, "lng":114.0516516, "address":"深圳投资大厦宾馆", "name":"001585.jpg"},
{"lat":22.5436407, "lng":114.0494170, "address":"龙盈乾坤", "name":"001586.jpg"},
{"lat":22.5453251, "lng":114.0536299, "address":"龙盈乾坤", "name":"001587.jpg"},
{"lat":22.5345784, "lng":114.0506139, "address":"深圳柏悦酒店", "name":"001588.jpg"},
{"lat":22.5334281, "lng":113.9370749, "address":"深圳柏悦酒店", "name":"001589.jpg"},
{"lat":22.5543574, "lng":114.2363794, "address":"明斯克航母世界", "name":"001590.jpg"},
{"lat":22.6239587, "lng":114.1534630, "address":"明斯克航母世界", "name":"001591.jpg"},
{"lat":22.5332131, "lng":114.0587410, "address":"深圳能源集团", "name":"001592.jpg"},
{"lat":22.5432303, "lng":114.0951824, "address":"深圳能源集团", "name":"001593.jpg"},
{"lat":22.6626268, "lng":114.4037108, "address":"半坝居民小组", "name":"001594.jpg"},
{"lat":22.5394867, "lng":114.0566032, "address":"大中华国际广场北", "name":"001595.jpg"},
{"lat":22.5396688, "lng":114.0569122, "address":"大中华国际广场北", "name":"001596.jpg"},
{"lat":22.6106456, "lng":114.4102577, "address":"东江纵队北撤遗址", "name":"001597.jpg"},
{"lat":22.5540062, "lng":114.0400984, "address":"雅枫国际酒店", "name":"001598.jpg"},
{"lat":22.5535376, "lng":114.0400335, "address":"雅枫国际酒店", "name":"001599.jpg"},
{"lat":22.5436504, "lng":114.1040957, "address":"深圳书城·罗湖城", "name":"001600.jpg"},
{"lat":22.5436072, "lng":114.1033862, "address":"拓荒牛", "name":"001601.jpg"},
{"lat":22.5459518, "lng":114.0560098, "address":"深圳市人民代表大会", "name":"001602.jpg"},
{"lat":22.5457928, "lng":114.0528557, "address":"深圳市人民代表大会", "name":"001603.jpg"},
{"lat":22.5446129, "lng":113.9481802, "address":"华润（深圳）有限公司", "name":"001604.jpg"},
{"lat":22.5456759, "lng":113.9524577, "address":"誠品書店", "name":"001605.jpg"},
{"lat":22.4849076, "lng":113.9103081, "address":"观海酒家", "name":"001606.jpg"},
{"lat":22.4806958, "lng":113.9086768, "address":"观海酒家", "name":"001607.jpg"},
{"lat":22.5362836, "lng":113.9222710, "address":"圣淘沙酒店", "name":"001608.jpg"},
{"lat":22.5366573, "lng":113.9228725, "address":"圣淘沙酒店", "name":"001609.jpg"},
{"lat":22.5144102, "lng":113.9385271, "address":"登良东", "name":"001610.jpg"},
{"lat":22.5726466, "lng":114.0462029, "address":"预审监管支队", "name":"001611.jpg"},
{"lat":22.5725757, "lng":114.0465506, "address":"预审监管支队", "name":"001612.jpg"},
{"lat":22.5742012, "lng":114.0453162, "address":"治巡支队行动处", "name":"001613.jpg"},
{"lat":22.5743147, "lng":114.0453749, "address":"治巡支队行动处", "name":"001614.jpg"},
{"lat":22.5126647, "lng":113.9201005, "address":"胡辣湯", "name":"001615.jpg"},
{"lat":22.5933362, "lng":114.2487806, "address":"胡辣湯", "name":"001616.jpg"},
{"lat":22.5211319, "lng":113.9304516, "address":"天利名城购物中心", "name":"001617.jpg"},
{"lat":22.6476442, "lng":114.0579450, "address":"CrossFit", "name":"001618.jpg"},
{"lat":22.6728557, "lng":113.9799449, "address":"文化名人大营救纪念碑", "name":"001619.jpg"},
{"lat":22.5478505, "lng":114.1000260, "address":"深圳｜天幕影业制片有限公司", "name":"001620.jpg"},
{"lat":22.5544216, "lng":113.9545570, "address":"深圳｜天幕影业制片有限公司", "name":"001621.jpg"},
{"lat":22.5540080, "lng":114.1162376, "address":"深圳中学东校大门", "name":"001622.jpg"},
{"lat":22.6798955, "lng":114.3423980, "address":"阿林私房菜館", "name":"001623.jpg"},
{"lat":22.6769551, "lng":114.3397384, "address":"坪山体育馆", "name":"001624.jpg"},
{"lat":22.6991484, "lng":113.8106292, "address":"坪山体育馆", "name":"001625.jpg"},
{"lat":22.6390610, "lng":114.3283252, "address":"强华学校", "name":"001626.jpg"},
{"lat":22.5485944, "lng":114.0734490, "address":"强华学校", "name":"001627.jpg"},
{"lat":22.5291883, "lng":114.0620426, "address":"幸福家超级市场", "name":"001628.jpg"},
{"lat":22.5297792, "lng":114.0623656, "address":"尊宝披萨(吉龙三街店)", "name":"001629.jpg"},
{"lat":22.5302792, "lng":114.0618263, "address":"惠宜购生活超市", "name":"001630.jpg"},
{"lat":22.5551140, "lng":114.1455646, "address":"罗湖体育馆", "name":"001631.jpg"},
{"lat":22.5552156, "lng":114.1455619, "address":"罗湖体育馆", "name":"001632.jpg"},
{"lat":22.4873990, "lng":114.5350455, "address":"西涌三号浴场", "name":"001633.jpg"},
{"lat":22.7383597, "lng":114.3682621, "address":"井水龙居民小组", "name":"001634.jpg"},
{"lat":22.7383152, "lng":114.3686405, "address":"井水龙居民小组", "name":"001635.jpg"},
{"lat":22.7390341, "lng":114.3657106, "address":"坑梓中心小学", "name":"001636.jpg"},
{"lat":22.7389426, "lng":114.3657869, "address":"坑梓中心小学", "name":"001637.jpg"},
{"lat":22.7349011, "lng":114.3638801, "address":"西坑居民小组", "name":"001638.jpg"},
{"lat":22.7347463, "lng":114.3639455, "address":"西坑居民小组", "name":"001639.jpg"},
{"lat":22.7392496, "lng":114.3796691, "address":"华加日西林", "name":"001640.jpg"},
{"lat":22.5351761, "lng":114.0642226, "address":"龙记桂林米粉", "name":"001641.jpg"},
{"lat":22.5349611, "lng":114.0642252, "address":"天虹微喔便利店", "name":"001642.jpg"},
{"lat":22.5347094, "lng":114.0642281, "address":"二天堂大药房", "name":"001643.jpg"},
{"lat":22.5346244, "lng":114.0642292, "address":"名典咖啡语茶", "name":"001644.jpg"},
{"lat":22.5345427, "lng":114.0642301, "address":"顺六连锁酒店", "name":"001645.jpg"},
{"lat":22.5342466, "lng":114.0642332, "address":"顺德公猪肚鸡汤火锅", "name":"001646.jpg"},
{"lat":22.5340107, "lng":114.0642365, "address":"医佳康大药房", "name":"001647.jpg"},
{"lat":22.5343240, "lng":114.0642324, "address":"港琪简餐", "name":"001648.jpg"},
{"lat":22.5343387, "lng":114.0637241, "address":"家和乐生活超市", "name":"001649.jpg"},
{"lat":22.5352245, "lng":114.0642913, "address":"鸿图图文", "name":"001650.jpg"},
{"lat":22.5352245, "lng":114.0642220, "address":"福隆源商行", "name":"001651.jpg"},
{"lat":22.5351066, "lng":114.0642234, "address":"佳联印务", "name":"001652.jpg"},
{"lat":22.5348786, "lng":114.0642261, "address":"华泰证券", "name":"001653.jpg"},
{"lat":22.5336226, "lng":114.0639693, "address":"满宝馄饨", "name":"001654.jpg"},
{"lat":22.5339420, "lng":114.0644173, "address":"客家人三及弟腌面", "name":"001655.jpg"},
{"lat":22.5337548, "lng":114.0652319, "address":"柯达影像东怡数码冲印", "name":"001656.jpg"},
{"lat":22.5327358, "lng":114.0656433, "address":"美宜佳", "name":"001657.jpg"},
{"lat":22.5329213, "lng":114.0653093, "address":"千里香水饺馄饨王", "name":"001658.jpg"},
{"lat":22.5329245, "lng":114.0651879, "address":"东华商店", "name":"001659.jpg"},
{"lat":22.5329245, "lng":114.0650677, "address":"骏—广告招牌印刷", "name":"001660.jpg"},
{"lat":22.5329228, "lng":114.0649661, "address":"籣斋牛肉面", "name":"001661.jpg"},
{"lat":22.5329261, "lng":114.0648529, "address":"隆江猪脚店", "name":"001662.jpg"},
{"lat":22.5329261, "lng":114.0647387, "address":"隆江猪脚饭", "name":"001663.jpg"},
{"lat":22.5329253, "lng":114.0644565, "address":"联华网络超市", "name":"001664.jpg"},
{"lat":22.5335742, "lng":114.0639681, "address":"利好来餐饮连锁", "name":"001665.jpg"},
{"lat":22.5306880, "lng":114.0603876, "address":"利好来餐饮连锁", "name":"001666.jpg"},
{"lat":22.5294529, "lng":114.0617389, "address":"老上海馄饨铺", "name":"001667.jpg"},
{"lat":22.5291932, "lng":114.0618799, "address":"君怡茶餐厅", "name":"001668.jpg"},
{"lat":22.5291946, "lng":114.0619693, "address":"金利港茶餐厅", "name":"001669.jpg"},
{"lat":22.5294635, "lng":114.0620232, "address":"漓江又一轩", "name":"001670.jpg"},
{"lat":22.5295304, "lng":114.0620201, "address":"华澜天精品商务酒店", "name":"001671.jpg"},
{"lat":22.5295018, "lng":114.0624449, "address":"兴粮品汤包", "name":"001672.jpg"},
{"lat":22.5302661, "lng":114.0623735, "address":"皇新福业便利店", "name":"001673.jpg"},
{"lat":22.5302679, "lng":114.0626080, "address":"南国快捷酒店", "name":"001674.jpg"},
{"lat":22.5302661, "lng":114.0625275, "address":"南国快捷酒店", "name":"001675.jpg"},
{"lat":22.5304301, "lng":114.0620788, "address":"正宗干洗", "name":"001676.jpg"},
{"lat":22.5304921, "lng":114.0620799, "address":"主题造型", "name":"001677.jpg"},
{"lat":22.5299452, "lng":114.0623681, "address":"温氏生鲜", "name":"001678.jpg"},
{"lat":22.5320949, "lng":114.0635499, "address":"温氏生鲜", "name":"001679.jpg"},
{"lat":22.5285306, "lng":114.0628923, "address":"高训大厦", "name":"001680.jpg"},
{"lat":22.5274711, "lng":114.0632685, "address":"高训大厦", "name":"001681.jpg"},
{"lat":22.5060911, "lng":114.0464771, "address":"广东岭南工艺美术馆", "name":"001682.jpg"},
{"lat":22.5868220, "lng":114.2741723, "address":"金色海岸码头", "name":"001683.jpg"},
{"lat":22.6983517, "lng":114.2202516, "address":"马斯洛科技(深圳)有限公司", "name":"001684.jpg"},
{"lat":22.6050883, "lng":114.0323491, "address":"致衣匠手工刺绣工作室", "name":"001685.jpg"},
{"lat":22.5989584, "lng":114.0390910, "address":"致衣匠手工刺绣工作室", "name":"001686.jpg"},
{"lat":22.7992895, "lng":113.8474284, "address":"燕罗颐年社康中心", "name":"001687.jpg"},
{"lat":22.7962738, "lng":113.8315044, "address":"燕罗颐年社康中心", "name":"001688.jpg"},
{"lat":22.8042903, "lng":113.8376779, "address":"燕罗广田人行天桥", "name":"001689.jpg"},
{"lat":22.5184680, "lng":114.0639854, "address":"福田口岸", "name":"001690.jpg"},
{"lat":22.5474704, "lng":114.0653713, "address":"人才大厦", "name":"001691.jpg"},
{"lat":22.6447343, "lng":114.0023898, "address":"和平实验小学", "name":"001692.jpg"},
{"lat":22.6444877, "lng":114.0025844, "address":"和平实验小学", "name":"001693.jpg"},
{"lat":22.7201788, "lng":114.2330512, "address":"正章干洗", "name":"001694.jpg"},
{"lat":22.7204250, "lng":114.2331076, "address":"富德生命人寿客户服务中心", "name":"001695.jpg"},
{"lat":22.7194935, "lng":114.2330485, "address":"Q房网", "name":"001696.jpg"},
{"lat":22.7199859, "lng":114.2330512, "address":"火舞铁板烧", "name":"001697.jpg"},
{"lat":22.7226554, "lng":114.2358515, "address":"深圳一欣口腔", "name":"001698.jpg"},
{"lat":22.7226653, "lng":114.2358729, "address":"玉颜堂", "name":"001699.jpg"},
{"lat":22.7226702, "lng":114.2360124, "address":"中联大药房", "name":"001700.jpg"},
{"lat":22.7226554, "lng":114.2354008, "address":"中联大药房", "name":"001701.jpg"},
{"lat":22.7204955, "lng":114.2331076, "address":"必胜宅急送", "name":"001702.jpg"},
{"lat":22.7219243, "lng":114.2327817, "address":"面包新语", "name":"001703.jpg"},
{"lat":22.7216472, "lng":114.2330016, "address":"屈臣氏", "name":"001704.jpg"},
{"lat":22.7038182, "lng":113.9864217, "address":"大浪小镇公共平台南", "name":"001705.jpg"},
{"lat":22.7049271, "lng":113.9847238, "address":"大浪小镇公共平台南", "name":"001706.jpg"},
{"lat":22.5422543, "lng":114.0486500, "address":"投资大厦", "name":"001707.jpg"},
{"lat":22.5422481, "lng":114.0482434, "address":"投资大厦", "name":"001708.jpg"},
{"lat":22.5427741, "lng":114.0480144, "address":"广电大厦", "name":"001709.jpg"},
{"lat":22.5427812, "lng":114.0484903, "address":"广电大厦", "name":"001710.jpg"},
{"lat":22.5515842, "lng":114.0587949, "address":"关山月美术馆", "name":"001711.jpg"},
{"lat":22.5512012, "lng":114.0609272, "address":"关山月美术馆", "name":"001712.jpg"},
{"lat":22.5358079, "lng":114.0494104, "address":"无印良品", "name":"001713.jpg"},
{"lat":22.5363852, "lng":114.0490724, "address":"面包新语", "name":"001714.jpg"},
{"lat":22.5366973, "lng":114.0487371, "address":"乐凯撒披萨", "name":"001715.jpg"},
{"lat":22.5354144, "lng":114.0490054, "address":"中海华庭", "name":"001716.jpg"},
{"lat":22.5351818, "lng":114.0494850, "address":"中海华庭", "name":"001717.jpg"},
{"lat":22.5381852, "lng":114.0510508, "address":"信息枢纽大厦", "name":"001718.jpg"},
{"lat":22.5388228, "lng":114.0514210, "address":"信息枢纽大厦", "name":"001719.jpg"},
{"lat":22.5356081, "lng":114.0596115, "address":"时代财富大厦", "name":"001720.jpg"},
{"lat":22.5476577, "lng":114.0616761, "address":"雅颂居", "name":"001721.jpg"},
{"lat":22.5473776, "lng":114.0610264, "address":"雅颂居", "name":"001722.jpg"},
{"lat":22.7196035, "lng":114.2330473, "address":"中原地产", "name":"001723.jpg"},
{"lat":22.7197396, "lng":114.2330487, "address":"燕妮莎", "name":"001724.jpg"},
{"lat":22.7200773, "lng":114.2330514, "address":"蓝可馨美甲", "name":"001725.jpg"},
{"lat":22.7201305, "lng":114.2330514, "address":"蓝可馨美甲", "name":"001726.jpg"},
{"lat":22.5555276, "lng":114.0389037, "address":"妇儿大厦", "name":"001727.jpg"},
{"lat":22.5550521, "lng":114.0390108, "address":"妇儿大厦", "name":"001728.jpg"},
{"lat":22.5489525, "lng":114.0369397, "address":"市政大厦", "name":"001729.jpg"},
{"lat":22.5488490, "lng":114.0376636, "address":"市政大厦", "name":"001730.jpg"},
{"lat":22.5349871, "lng":114.0185578, "address":"绿婶鸡煲", "name":"001731.jpg"},
{"lat":22.5366890, "lng":114.0188021, "address":"大友利茶餐厅", "name":"001732.jpg"},
{"lat":22.5480583, "lng":114.0334744, "address":"水榭花都", "name":"001733.jpg"},
{"lat":22.5467612, "lng":114.0302972, "address":"水榭花都", "name":"001734.jpg"},
{"lat":22.5397063, "lng":114.0150036, "address":"深圳风湿病医院", "name":"001735.jpg"},
{"lat":22.5397366, "lng":114.0139467, "address":"深圳风湿病医院", "name":"001736.jpg"},
{"lat":22.6884029, "lng":114.3760174, "address":"深圳市粒籽食品有限公司", "name":"001737.jpg"},
{"lat":22.5885933, "lng":113.9833027, "address":"深圳市粒籽食品有限公司", "name":"001738.jpg"},
{"lat":22.5960505, "lng":114.4699881, "address":"香江維園茶餐廳", "name":"001739.jpg"},
{"lat":22.6463833, "lng":113.7734000, "address":"香江維園茶餐廳", "name":"001740.jpg"},
{"lat":22.5865573, "lng":114.2397357, "address":"深外高中", "name":"001741.jpg"},
{"lat":22.5484819, "lng":114.0758366, "address":"海外装饰大厦", "name":"001742.jpg"},
{"lat":22.5480047, "lng":114.0758369, "address":"海外装饰大厦", "name":"001743.jpg"},
{"lat":22.5712282, "lng":114.0572095, "address":"万科大厦", "name":"001744.jpg"},
{"lat":22.5710703, "lng":114.0573543, "address":"万科大厦", "name":"001745.jpg"},
{"lat":22.5369696, "lng":113.9362793, "address":"伊兰兴手工牛肉面（粤海店）", "name":"001746.jpg"},
{"lat":22.5432107, "lng":113.9399252, "address":"伊兰兴手工牛肉面（粤海店）", "name":"001747.jpg"},
{"lat":22.5409819, "lng":114.1137272, "address":"深圳发展中心大厦", "name":"001748.jpg"},
{"lat":22.5413558, "lng":114.1056960, "address":"都市名苑", "name":"001749.jpg"},
{"lat":22.5413548, "lng":114.0995182, "address":"都市名苑", "name":"001750.jpg"},
{"lat":22.6473643, "lng":114.0236474, "address":"龙华壹方城西", "name":"001751.jpg"},
{"lat":22.6473156, "lng":114.0233957, "address":"龙华壹方城西", "name":"001752.jpg"},
{"lat":22.5296691, "lng":114.0626108, "address":"艾丽千顺高档烟茶酒商行", "name":"001753.jpg"},
{"lat":22.5297100, "lng":114.0626105, "address":"元中江味城市快餐", "name":"001754.jpg"},
{"lat":22.5298786, "lng":114.0626093, "address":"肠粉王", "name":"001755.jpg"},
{"lat":22.5299580, "lng":114.0626087, "address":"重庆小面", "name":"001756.jpg"},
{"lat":22.5300338, "lng":114.0626081, "address":"华发士多店", "name":"001757.jpg"},
{"lat":22.5418798, "lng":114.0598017, "address":"海关综合大楼", "name":"001758.jpg"},
{"lat":22.5430368, "lng":114.0612454, "address":"海关综合大楼", "name":"001759.jpg"},
{"lat":22.5654333, "lng":114.0532883, "address":"华茂苑", "name":"001760.jpg"},
{"lat":22.5659705, "lng":114.0391015, "address":"华茂苑", "name":"001761.jpg"},
{"lat":22.5422797, "lng":114.1123534, "address":"海燕大厦", "name":"001762.jpg"},
{"lat":22.5419903, "lng":114.1121465, "address":"海燕大厦", "name":"001763.jpg"},
{"lat":22.5863011, "lng":113.9368673, "address":"瑞幸咖啡", "name":"001764.jpg"},
{"lat":22.5487754, "lng":114.1165041, "address":"中心廣場", "name":"001765.jpg"},
{"lat":22.5382203, "lng":114.0607951, "address":"中国李宁", "name":"001766.jpg"},
{"lat":22.6411462, "lng":114.1742205, "address":"婺源包子店", "name":"001767.jpg"},
{"lat":22.6364363, "lng":114.1759572, "address":"盒马鲜生", "name":"001768.jpg"},
{"lat":22.5440547, "lng":114.0777180, "address":"宴老北京铜火锅（中航天虹店）", "name":"001769.jpg"},
{"lat":22.6286824, "lng":114.0160505, "address":"天虹微喔", "name":"001770.jpg"},
{"lat":22.6307696, "lng":114.0166134, "address":"无印良品", "name":"001771.jpg"},
{"lat":22.7260861, "lng":114.2123592, "address":"中广核工程有限公司（设计院）", "name":"001772.jpg"},
{"lat":22.7260861, "lng":114.2125308, "address":"中国广核集团放射性废物处理及处置研发中心", "name":"001773.jpg"},
{"lat":22.7260836, "lng":114.2121795, "address":"核电安全监控技术与装备国家重点实验室", "name":"001774.jpg"},
{"lat":22.7253760, "lng":114.2125657, "address":"BAESAN奶緹音樂茶館", "name":"001775.jpg"},
{"lat":22.7253389, "lng":114.2122465, "address":"品正品茶餐厅", "name":"001776.jpg"},
{"lat":22.7271795, "lng":114.2127776, "address":"奈雪的茶", "name":"001777.jpg"},
{"lat":22.7273874, "lng":114.2127722, "address":"韩江·华为授权体验店", "name":"001778.jpg"},
{"lat":22.7291488, "lng":114.2129600, "address":"韩江·华为授权体验店", "name":"001779.jpg"},
{"lat":22.7286095, "lng":114.2123806, "address":"万象影城", "name":"001780.jpg"},
{"lat":22.5770472, "lng":113.8728444, "address":"王大中丞祠", "name":"001781.jpg"},
{"lat":22.5304588, "lng":114.0561586, "address":"王大中丞祠", "name":"001782.jpg"},
{"lat":22.5450025, "lng":113.9351178, "address":"深圳市众为创造科技有限公司", "name":"001783.jpg"},
{"lat":22.6019444, "lng":113.9936090, "address":"学生事务中心", "name":"001784.jpg"},
{"lat":22.6019552, "lng":113.9937158, "address":"致仁咖啡店", "name":"001785.jpg"},
{"lat":22.6030039, "lng":113.9936215, "address":"致仁咖啡店", "name":"001786.jpg"},
{"lat":22.5437909, "lng":114.0894215, "address":"华联大厦(福田)", "name":"001787.jpg"},
{"lat":22.5433302, "lng":114.0822303, "address":"赛格广场", "name":"001788.jpg"},
{"lat":22.5430223, "lng":114.0827710, "address":"赛格广场", "name":"001789.jpg"},
{"lat":22.6474247, "lng":114.0596822, "address":"润发缘（神舟店）", "name":"001790.jpg"},
{"lat":22.6474060, "lng":114.0592877, "address":"柳州螺蛳粉", "name":"001791.jpg"},
{"lat":22.6474321, "lng":114.0598055, "address":"维克佳", "name":"001792.jpg"},
{"lat":22.6474260, "lng":114.0595432, "address":"中国兰州拉面", "name":"001793.jpg"},
{"lat":22.6473154, "lng":114.0592745, "address":"华莱士（坂田神舟店）", "name":"001794.jpg"},
{"lat":22.6465449, "lng":114.0604212, "address":"维克佳", "name":"001795.jpg"},
{"lat":22.5734265, "lng":113.8627921, "address":"大无有间精酿啤酒屋", "name":"001796.jpg"},
{"lat":22.5700702, "lng":114.2470112, "address":"海港大厦", "name":"001797.jpg"},
{"lat":22.5712485, "lng":114.2479876, "address":"海港大厦", "name":"001798.jpg"},
{"lat":22.6237761, "lng":114.0211445, "address":"深发烟酒商行", "name":"001799.jpg"},
{"lat":22.6253123, "lng":114.0209450, "address":"三津汤包", "name":"001800.jpg"},
{"lat":22.6256521, "lng":114.0205814, "address":"瑞幸咖啡", "name":"001801.jpg"},
{"lat":22.6256345, "lng":114.0202494, "address":"HEA", "name":"001802.jpg"},
{"lat":22.6245888, "lng":114.0191020, "address":"Urban", "name":"001803.jpg"},
{"lat":22.6249283, "lng":114.0208237, "address":"良品铺子", "name":"001804.jpg"},
{"lat":22.6254392, "lng":114.0193432, "address":"SELZ", "name":"001805.jpg"},
{"lat":22.6257793, "lng":114.0203454, "address":"咕嘟石", "name":"001806.jpg"},
{"lat":22.6235038, "lng":114.0199253, "address":"重庆先生", "name":"001807.jpg"},
{"lat":22.6253530, "lng":114.0209920, "address":"美凯龙爱家", "name":"001808.jpg"},
{"lat":22.6256000, "lng":114.0193955, "address":"Puma", "name":"001809.jpg"},
{"lat":22.6244170, "lng":114.0216632, "address":"盖乐星", "name":"001810.jpg"},
{"lat":22.6250273, "lng":114.0193125, "address":"津梁生活", "name":"001811.jpg"},
{"lat":22.6237649, "lng":114.0197605, "address":"鱼你在一起", "name":"001812.jpg"},
{"lat":22.6253534, "lng":114.0189870, "address":"六福珠宝", "name":"001813.jpg"},
{"lat":22.6259618, "lng":114.0207505, "address":"ADA", "name":"001814.jpg"},
{"lat":22.6251388, "lng":114.0187373, "address":"Alienware", "name":"001815.jpg"},
{"lat":22.6251551, "lng":114.0188960, "address":"钻石世家", "name":"001816.jpg"},
{"lat":22.6236178, "lng":114.0198071, "address":"尚顶香", "name":"001817.jpg"},
{"lat":22.6240979, "lng":114.0195226, "address":"尚顶香", "name":"001818.jpg"},
{"lat":22.6253419, "lng":114.0205330, "address":"英特尔", "name":"001819.jpg"},
{"lat":22.6240147, "lng":114.0195689, "address":"胖哥俩", "name":"001820.jpg"},
{"lat":22.6235425, "lng":114.0202392, "address":"蛙来哒", "name":"001821.jpg"},
{"lat":22.6237195, "lng":114.0214868, "address":"ICBC", "name":"001822.jpg"},
{"lat":22.6252544, "lng":114.0193096, "address":"露丝卡文", "name":"001823.jpg"},
{"lat":22.6252416, "lng":114.0208491, "address":"香当享", "name":"001824.jpg"},
{"lat":22.6254784, "lng":114.0206970, "address":"赵总请喝茶", "name":"001825.jpg"},
{"lat":22.6240857, "lng":114.0195353, "address":"赵总请喝茶", "name":"001826.jpg"},
{"lat":22.6259715, "lng":114.0198503, "address":"Nike", "name":"001827.jpg"},
{"lat":22.6239175, "lng":114.0195266, "address":"喜米食堂", "name":"001828.jpg"},
{"lat":22.6257314, "lng":114.0200571, "address":"埃沃定制", "name":"001829.jpg"},
{"lat":22.6232980, "lng":114.0200935, "address":"野妹经典", "name":"001830.jpg"},
{"lat":22.6254979, "lng":114.0211785, "address":"明珠眼镜", "name":"001831.jpg"},
{"lat":22.6252888, "lng":114.0205973, "address":"瑞清眼镜", "name":"001832.jpg"},
{"lat":22.6236648, "lng":114.0213015, "address":"龙妹火锅", "name":"001833.jpg"},
{"lat":22.6256628, "lng":114.0190807, "address":"CGV影城", "name":"001834.jpg"},
{"lat":22.6259938, "lng":114.0208053, "address":"华润银行", "name":"001835.jpg"},
{"lat":22.6258838, "lng":114.0205970, "address":"节魔的茶", "name":"001836.jpg"},
{"lat":22.6251229, "lng":114.0212286, "address":"摩尔特斯", "name":"001837.jpg"},
{"lat":22.6252821, "lng":114.0208172, "address":"往事若茶", "name":"001838.jpg"},
{"lat":22.6264340, "lng":114.0165374, "address":"啜咖精品咖啡工作室", "name":"001839.jpg"},
{"lat":22.5456076, "lng":113.9286442, "address":"啜咖精品咖啡工作室", "name":"001840.jpg"},
{"lat":22.6309020, "lng":114.4181270, "address":"香江維園港式茶餐廳(大鵬葵涌店)", "name":"001841.jpg"},
{"lat":22.5541456, "lng":114.1033093, "address":"香江維園港式茶餐廳(大鵬葵涌店)", "name":"001842.jpg"},
{"lat":22.5943606, "lng":113.8475042, "address":"固戍红湾", "name":"001843.jpg"},
{"lat":22.5956864, "lng":113.8458811, "address":"固戍红湾", "name":"001844.jpg"},
{"lat":22.5981480, "lng":113.8444610, "address":"联升购物广场", "name":"001845.jpg"},
{"lat":22.5989643, "lng":113.8447009, "address":"联升购物广场", "name":"001846.jpg"},
{"lat":22.6167561, "lng":113.8356258, "address":"华胜实验学校", "name":"001847.jpg"},
{"lat":22.6211686, "lng":113.8337487, "address":"空港油库", "name":"001848.jpg"},
{"lat":22.6218831, "lng":113.8341386, "address":"空港油库", "name":"001849.jpg"},
{"lat":22.6270263, "lng":113.8322400, "address":"机场邮件处理中心", "name":"001850.jpg"},
{"lat":22.6272453, "lng":113.8328116, "address":"机场邮件处理中心", "name":"001851.jpg"},
{"lat":22.6460692, "lng":113.8208822, "address":"AB楼", "name":"001852.jpg"},
{"lat":22.6572134, "lng":113.8126874, "address":"永福苑", "name":"001853.jpg"},
{"lat":22.6583717, "lng":113.8124445, "address":"永福苑", "name":"001854.jpg"},
{"lat":22.6659584, "lng":113.8071605, "address":"福永海鲜市场", "name":"001855.jpg"},
{"lat":22.6692364, "lng":113.8019547, "address":"新和天桥", "name":"001856.jpg"},
{"lat":22.6689592, "lng":113.8022335, "address":"新和天桥", "name":"001857.jpg"},
{"lat":22.6818463, "lng":113.8010122, "address":"同泰时代中心", "name":"001858.jpg"},
{"lat":22.6814607, "lng":113.8016683, "address":"同泰时代中心", "name":"001859.jpg"},
{"lat":22.7013052, "lng":113.8117913, "address":"福海塘尾", "name":"001860.jpg"},
{"lat":22.7009024, "lng":113.8123506, "address":"福海塘尾", "name":"001861.jpg"},
{"lat":22.7084340, "lng":113.8119014, "address":"塘尾北", "name":"001862.jpg"},
{"lat":22.7086649, "lng":113.8125793, "address":"塘尾北", "name":"001863.jpg"},
{"lat":22.7127506, "lng":113.8099524, "address":"安胜天桥", "name":"001864.jpg"},
{"lat":22.7137134, "lng":113.8104591, "address":"安胜天桥", "name":"001865.jpg"},
{"lat":22.7179623, "lng":113.8107381, "address":"学府雅苑", "name":"001866.jpg"},
{"lat":22.7178205, "lng":113.8114611, "address":"学府雅苑", "name":"001867.jpg"},
{"lat":22.7255231, "lng":113.8150782, "address":"拾悦城", "name":"001868.jpg"},
{"lat":22.7243847, "lng":113.8152204, "address":"拾悦城", "name":"001869.jpg"},
{"lat":22.7489446, "lng":113.8206690, "address":"益华电子城", "name":"001870.jpg"},
{"lat":22.7478516, "lng":113.8213379, "address":"益华电子城", "name":"001871.jpg"},
{"lat":22.7519824, "lng":113.8210348, "address":"沙井新和", "name":"001872.jpg"},
{"lat":22.7614003, "lng":113.8233266, "address":"沙井河桥", "name":"001873.jpg"},
{"lat":22.7666249, "lng":113.8258258, "address":"格布雅苑", "name":"001874.jpg"},
{"lat":22.7654888, "lng":113.8261617, "address":"格布雅苑", "name":"001875.jpg"},
{"lat":22.7719284, "lng":113.8251970, "address":"御溪城", "name":"001876.jpg"},
{"lat":22.7731973, "lng":113.8256036, "address":"御溪城", "name":"001877.jpg"},
{"lat":22.5486575, "lng":113.8918331, "address":"南医大深圳医院", "name":"001878.jpg"},
{"lat":22.5490885, "lng":113.8909802, "address":"南医大深圳医院", "name":"001879.jpg"},
{"lat":22.5521018, "lng":113.8922524, "address":"凯旋城", "name":"001880.jpg"},
{"lat":22.5520975, "lng":113.8927469, "address":"凯旋城", "name":"001881.jpg"},
{"lat":22.5454172, "lng":113.8845068, "address":"摩天轮", "name":"001882.jpg"},
{"lat":22.5465526, "lng":113.8825915, "address":"欢乐港湾商业街", "name":"001883.jpg"},
{"lat":22.5538610, "lng":113.8860615, "address":"宏发领域", "name":"001884.jpg"},
{"lat":22.5513414, "lng":113.8769516, "address":"宝安图书馆西", "name":"001885.jpg"},
{"lat":22.5525652, "lng":113.8744211, "address":"荣超滨海大厦", "name":"001886.jpg"},
{"lat":22.5528388, "lng":113.8794812, "address":"宝安图书馆", "name":"001887.jpg"},
{"lat":22.5526173, "lng":113.8775818, "address":"宝安图书馆", "name":"001888.jpg"},
{"lat":22.5554308, "lng":113.8848154, "address":"宏发领域", "name":"001889.jpg"},
{"lat":22.5567417, "lng":113.8816134, "address":"壹方城", "name":"001890.jpg"},
{"lat":22.5649622, "lng":113.8786718, "address":"宝安体育馆北", "name":"001891.jpg"},
{"lat":22.5548625, "lng":113.8666034, "address":"海韵学校南门", "name":"001892.jpg"},
{"lat":22.5550852, "lng":113.8672985, "address":"海韵学校南门", "name":"001893.jpg"},
{"lat":22.5566863, "lng":113.8675410, "address":"海韵学校", "name":"001894.jpg"},
{"lat":22.7370717, "lng":113.7782819, "address":"第七高级中学", "name":"001895.jpg"},
{"lat":22.7375008, "lng":113.7797704, "address":"第七高级中学", "name":"001896.jpg"},
{"lat":22.7455036, "lng":113.7850459, "address":"嘉晶电子", "name":"001897.jpg"},
{"lat":22.7388187, "lng":113.7846647, "address":"蚝一濠景城", "name":"001898.jpg"},
{"lat":22.7389863, "lng":113.7844521, "address":"蚝一濠景城", "name":"001899.jpg"},
{"lat":22.7423263, "lng":113.7847319, "address":"大富科技东", "name":"001900.jpg"},
{"lat":22.7348933, "lng":113.7807238, "address":"蚝二西海岸", "name":"001901.jpg"},
{"lat":22.7273803, "lng":113.7808391, "address":"兴英科技北", "name":"001902.jpg"},
{"lat":22.7272373, "lng":113.7829685, "address":"华丰国际智造城", "name":"001903.jpg"},
{"lat":22.7274215, "lng":113.7831823, "address":"华丰国际智造城", "name":"001904.jpg"},
{"lat":22.7252538, "lng":113.7795798, "address":"锦程文丰大厦", "name":"001905.jpg"},
{"lat":22.7253548, "lng":113.7799746, "address":"锦程文丰大厦", "name":"001906.jpg"},
{"lat":22.7227283, "lng":113.7793935, "address":"三扬轴业", "name":"001907.jpg"},
{"lat":22.7233491, "lng":113.7797454, "address":"三扬轴业", "name":"001908.jpg"},
{"lat":22.7186491, "lng":113.7790012, "address":"和一好万年", "name":"001909.jpg"},
{"lat":22.7188497, "lng":113.7794118, "address":"和一好万年", "name":"001910.jpg"},
{"lat":22.7137039, "lng":113.7788676, "address":"和一社康中心", "name":"001911.jpg"},
{"lat":22.7135109, "lng":113.7785532, "address":"和一社康中心", "name":"001912.jpg"},
{"lat":22.7104575, "lng":113.7831313, "address":"美祥顺", "name":"001913.jpg"},
{"lat":22.7102700, "lng":113.7839566, "address":"美祥顺", "name":"001914.jpg"},
{"lat":22.7476248, "lng":113.7922383, "address":"星智机电", "name":"001915.jpg"},
{"lat":22.7431835, "lng":113.7899068, "address":"沙井冠群实验学校", "name":"001916.jpg"},
{"lat":22.7430054, "lng":113.7899353, "address":"沙井冠群实验学校", "name":"001917.jpg"},
{"lat":22.7381222, "lng":113.7910296, "address":"立才学校", "name":"001918.jpg"},
{"lat":22.7382839, "lng":113.7921439, "address":"立才学校", "name":"001919.jpg"},
{"lat":22.7371190, "lng":113.7958777, "address":"凯嘉酒店", "name":"001920.jpg"},
{"lat":22.7350230, "lng":113.7960485, "address":"凯嘉酒店", "name":"001921.jpg"},
{"lat":22.7329657, "lng":113.7954876, "address":"新沙天虹购物中心", "name":"001922.jpg"},
{"lat":22.7316693, "lng":113.7957615, "address":"新沙天虹购物中心", "name":"001923.jpg"},
{"lat":22.7343761, "lng":113.7935355, "address":"竞华电子", "name":"001924.jpg"},
{"lat":22.7341885, "lng":113.7931704, "address":"竞华电子", "name":"001925.jpg"},
{"lat":22.7312999, "lng":113.7913970, "address":"沙一鹏盈汇", "name":"001926.jpg"},
{"lat":22.7310967, "lng":113.7910889, "address":"沙一鹏盈汇", "name":"001927.jpg"},
{"lat":22.7272523, "lng":113.7954022, "address":"沙井西部义乌", "name":"001928.jpg"},
{"lat":22.7270337, "lng":113.7896635, "address":"泽台电子", "name":"001929.jpg"},
{"lat":22.7267899, "lng":113.7906839, "address":"泽台电子", "name":"001930.jpg"},
{"lat":22.7257765, "lng":113.7870823, "address":"兴英科技东", "name":"001931.jpg"},
{"lat":22.7232090, "lng":113.7873509, "address":"兴英科技东", "name":"001932.jpg"},
{"lat":22.7260311, "lng":113.7949282, "address":"西环电子中心", "name":"001933.jpg"},
{"lat":22.7221548, "lng":113.7949651, "address":"信维通信", "name":"001934.jpg"},
{"lat":22.7204088, "lng":113.7942003, "address":"信维通信", "name":"001935.jpg"},
{"lat":22.7150496, "lng":113.7861517, "address":"松福裕达富", "name":"001936.jpg"},
{"lat":22.7119895, "lng":113.7863895, "address":"松福裕达富", "name":"001937.jpg"},
{"lat":22.7102878, "lng":113.7889223, "address":"欧达可", "name":"001938.jpg"},
{"lat":22.7101275, "lng":113.7888298, "address":"欧达可", "name":"001939.jpg"},
{"lat":22.7101875, "lng":113.7931102, "address":"敬邦公司", "name":"001940.jpg"},
{"lat":22.7100106, "lng":113.7933476, "address":"敬邦公司", "name":"001941.jpg"},
{"lat":22.7021851, "lng":113.7722379, "address":"深圳国际会展中心", "name":"001942.jpg"},
{"lat":22.7030947, "lng":113.7721023, "address":"深圳国际会展中心", "name":"001943.jpg"},
{"lat":22.7039116, "lng":113.7826233, "address":"西乡蚝业", "name":"001944.jpg"},
{"lat":22.7041389, "lng":113.7836832, "address":"西乡蚝业", "name":"001945.jpg"},
{"lat":22.7025048, "lng":113.7811800, "address":"高士拉链", "name":"001946.jpg"},
{"lat":22.7012736, "lng":113.7813131, "address":"高士拉链", "name":"001947.jpg"},
{"lat":22.6901256, "lng":113.7800431, "address":"莱尔德电子", "name":"001948.jpg"},
{"lat":22.6878410, "lng":113.7801366, "address":"莱尔德电子", "name":"001949.jpg"},
{"lat":22.6851241, "lng":113.7796096, "address":"大族激光", "name":"001950.jpg"},
{"lat":22.6833900, "lng":113.7797945, "address":"大族激光", "name":"001951.jpg"},
{"lat":22.6812760, "lng":113.7792756, "address":"航盛电子", "name":"001952.jpg"},
{"lat":22.6802185, "lng":113.7795005, "address":"航盛电子", "name":"001953.jpg"},
{"lat":22.6775512, "lng":113.7802678, "address":"福永扣车场", "name":"001954.jpg"},
{"lat":22.7025077, "lng":113.7850788, "address":"韩宇药业集团", "name":"001955.jpg"},
{"lat":22.7054239, "lng":113.7858356, "address":"艾默生西门", "name":"001956.jpg"},
{"lat":22.7083398, "lng":113.7855916, "address":"艾默生西门", "name":"001957.jpg"},
{"lat":22.7069864, "lng":113.7912115, "address":"翻身实验学校", "name":"001958.jpg"},
{"lat":22.7066771, "lng":113.7909594, "address":"翻身实验学校", "name":"001959.jpg"},
{"lat":22.7041017, "lng":113.7916860, "address":"怀德翠海", "name":"001960.jpg"},
{"lat":22.7027885, "lng":113.7904990, "address":"同安药业", "name":"001961.jpg"},
{"lat":22.7021888, "lng":113.7905036, "address":"同安药业", "name":"001962.jpg"},
{"lat":22.6997477, "lng":113.7918902, "address":"盛和兴厂", "name":"001963.jpg"},
{"lat":22.6995882, "lng":113.7928642, "address":"盛和兴厂", "name":"001964.jpg"},
{"lat":22.6983871, "lng":113.7887266, "address":"和平中英文学校", "name":"001965.jpg"},
{"lat":22.6974532, "lng":113.7885294, "address":"和平中英文学校", "name":"001966.jpg"},
{"lat":22.6953000, "lng":113.7878584, "address":"万家和百货", "name":"001967.jpg"},
{"lat":22.6951694, "lng":113.7876549, "address":"万家和百货", "name":"001968.jpg"},
{"lat":22.6922997, "lng":113.7876905, "address":"和平市场", "name":"001969.jpg"},
{"lat":22.6925332, "lng":113.7879011, "address":"和平市场", "name":"001970.jpg"},
{"lat":22.6903716, "lng":113.7877294, "address":"福海和平中心", "name":"001971.jpg"},
{"lat":22.6898279, "lng":113.7879648, "address":"福海和平中心", "name":"001972.jpg"},
{"lat":22.6824418, "lng":113.7886997, "address":"东方山水酒店", "name":"001973.jpg"},
{"lat":22.6822265, "lng":113.7897163, "address":"东方山水酒店", "name":"001974.jpg"},
{"lat":22.6824783, "lng":113.7902137, "address":"嘉隆科技", "name":"001975.jpg"},
{"lat":22.6777312, "lng":113.7888819, "address":"乐荣集团", "name":"001976.jpg"},
{"lat":22.6781492, "lng":113.7914979, "address":"乐荣集团", "name":"001977.jpg"},
{"lat":22.7350060, "lng":113.8000238, "address":"市中西医结合医院", "name":"001978.jpg"},
{"lat":22.7348514, "lng":113.8002692, "address":"市中西医结合医院", "name":"001979.jpg"},
{"lat":22.7514958, "lng":113.8095765, "address":"步涌桥", "name":"001980.jpg"},
{"lat":22.7513890, "lng":113.8098319, "address":"步涌桥", "name":"001981.jpg"},
{"lat":22.7503261, "lng":113.8103267, "address":"中华制漆", "name":"001982.jpg"},
{"lat":22.7500547, "lng":113.8101634, "address":"中华制漆", "name":"001983.jpg"},
{"lat":22.7494534, "lng":113.8140181, "address":"沙井巡警中队", "name":"001984.jpg"},
{"lat":22.7491372, "lng":113.8141044, "address":"沙井巡警中队", "name":"001985.jpg"},
{"lat":22.7493677, "lng":113.8089252, "address":"沙井综合执法队", "name":"001986.jpg"},
{"lat":22.7495354, "lng":113.8092672, "address":"沙井综合执法队", "name":"001987.jpg"},
{"lat":22.7394569, "lng":113.8068206, "address":"明珠市场", "name":"001988.jpg"},
{"lat":22.7389582, "lng":113.8072109, "address":"明珠市场", "name":"001989.jpg"},
{"lat":22.7466405, "lng":113.8107302, "address":"沙井中学", "name":"001990.jpg"},
{"lat":22.7463696, "lng":113.8117388, "address":"沙井中学", "name":"001991.jpg"},
{"lat":22.7479461, "lng":113.8189443, "address":"益华电子城南", "name":"001992.jpg"},
{"lat":22.7473700, "lng":113.8191159, "address":"益华电子城南", "name":"001993.jpg"},
{"lat":22.7484387, "lng":113.8160581, "address":"中亚电子博览中心", "name":"001994.jpg"},
{"lat":22.7482924, "lng":113.8162599, "address":"中亚电子博览中心", "name":"001995.jpg"},
{"lat":22.7355973, "lng":113.8108669, "address":"西荟城广场", "name":"001996.jpg"},
{"lat":22.7354013, "lng":113.8110910, "address":"西荟城广场", "name":"001997.jpg"},
{"lat":22.7322948, "lng":113.8151536, "address":"壆岗大厦", "name":"001998.jpg"},
{"lat":22.7324319, "lng":113.8155943, "address":"壆岗大厦", "name":"001999.jpg"},
{"lat":22.5657494, "lng":113.8487425, "address":"海灏华庭", "name":"002000.jpg"}]